{
"type": "FeatureCollection",
"crs": { "type": "name", "properties": { "name": "urn:ogc:def:crs:OGC:1.3:CRS84" } },
                                                                                
"features": [
{ "type": "Feature", "properties": { "id_equipment": 1, "name_town": "Abidjan", "type": "ecole", "name": null, "id_town": 0 }, "geometry": { "type": "Point", "coordinates": [ -4.0333, 5.3609 ] } },
{ "type": "Feature", "properties": { "id_equipment": 4, "name_town": "Abidjan", "type": "ecole", "name": null, "id_town": 0 }, "geometry": { "type": "Point", "coordinates": [ -3.9395, 5.2599 ] } },
{ "type": "Feature", "properties": { "id_equipment": 11, "name_town": "Abidjan", "type": "ecole", "name": "Centre de Perfectionnement", "id_town": 0 }, "geometry": { "type": "Point", "coordinates": [ -4.0758, 5.3589 ] } },
{ "type": "Feature", "properties": { "id_equipment": 14, "name_town": "Guiglo", "type": "ecole", "name": "Ecole Primaire VII", "id_town": 0 }, "geometry": { "type": "Point", "coordinates": [ -7.484726671999967, 6.54240733200004 ] } },
{ "type": "Feature", "properties": { "id_equipment": 20, "name_town": "Dabou", "type": "ecole", "name": "Ecole maternelle Les Palmiers", "id_town": 0 }, "geometry": { "type": "Point", "coordinates": [ -4.373237333999954, 5.326621229000068 ] } },
{ "type": "Feature", "properties": { "id_equipment": 21, "name_town": "Dabou", "type": "ecole", "name": "École primaire  catholique", "id_town": 0 }, "geometry": { "type": "Point", "coordinates": [ -4.377108034999935, 5.323912288000032 ] } },
{ "type": "Feature", "properties": { "id_equipment": 22, "name_town": "Dabou", "type": "ecole", "name": "Ecole Primaire ND de la Paix", "id_town": 0 }, "geometry": { "type": "Point", "coordinates": [ -4.381808666999973, 5.316446497000072 ] } },
{ "type": "Feature", "properties": { "id_equipment": 27, "name_town": "Dabou", "type": "ecole", "name": "Ecole Harmony", "id_town": 0 }, "geometry": { "type": "Point", "coordinates": [ -4.368963297999926, 5.324211037000056 ] } },
{ "type": "Feature", "properties": { "id_equipment": 30, "name_town": "Dabou", "type": "ecole", "name": "Centre féminin IFEF", "id_town": 0 }, "geometry": { "type": "Point", "coordinates": [ -4.381197206999958, 5.320261341000049 ] } },
{ "type": "Feature", "properties": { "id_equipment": 32, "name_town": "Dabou", "type": "ecole", "name": null, "id_town": 0 }, "geometry": { "type": "Point", "coordinates": [ -4.385621365999953, 5.319330724000055 ] } },
{ "type": "Feature", "properties": { "id_equipment": 35, "name_town": "Dabou", "type": "ecole", "name": null, "id_town": 0 }, "geometry": { "type": "Point", "coordinates": [ -4.413170979999961, 5.319017495000027 ] } },
{ "type": "Feature", "properties": { "id_equipment": 37, "name_town": "Dabou", "type": "ecole", "name": null, "id_town": 0 }, "geometry": { "type": "Point", "coordinates": [ -4.411674347999963, 5.314609670000039 ] } },
{ "type": "Feature", "properties": { "id_equipment": 43, "name_town": "Dabou", "type": "ecole", "name": null, "id_town": 0 }, "geometry": { "type": "Point", "coordinates": [ -4.377496055999928, 5.304458280000063 ] } },
{ "type": "Feature", "properties": { "id_equipment": 52, "name_town": "Aboisso", "type": "ecole", "name": "Groupe scolaire international des Enseigants", "id_town": 0 }, "geometry": { "type": "Point", "coordinates": [ -3.207762846999969, 5.474420962000067 ] } },
{ "type": "Feature", "properties": { "id_equipment": 53, "name_town": "Aboisso", "type": "ecole", "name": "EPP Nord Est", "id_town": 0 }, "geometry": { "type": "Point", "coordinates": [ -3.198845469999982, 5.470116975000054 ] } },
{ "type": "Feature", "properties": { "id_equipment": 54, "name_town": "Aboisso", "type": "ecole", "name": "Collège CMA", "id_town": 0 }, "geometry": { "type": "Point", "coordinates": [ -3.21297703099998, 5.466787244000046 ] } },
{ "type": "Feature", "properties": { "id_equipment": 55, "name_town": "Aboisso", "type": "ecole", "name": "EPP Plateau", "id_town": 0 }, "geometry": { "type": "Point", "coordinates": [ -3.20963661899998, 5.469845443000055 ] } },
{ "type": "Feature", "properties": { "id_equipment": 59, "name_town": "Aboisso", "type": "ecole", "name": "Groupe Scolaire Ebouakro", "id_town": 0 }, "geometry": { "type": "Point", "coordinates": [ -3.205191222999929, 5.473557334000021 ] } },
{ "type": "Feature", "properties": { "id_equipment": 61, "name_town": "Aboisso", "type": "ecole", "name": "EPP St Joseph", "id_town": 0 }, "geometry": { "type": "Point", "coordinates": [ -3.208360109999945, 5.467678653000063 ] } },
{ "type": "Feature", "properties": { "id_equipment": 62, "name_town": "Aboisso", "type": "ecole", "name": "Collège Notre Dame de la Chapelle", "id_town": 0 }, "geometry": { "type": "Point", "coordinates": [ -3.187093308999977, 5.474195339000064 ] } },
{ "type": "Feature", "properties": { "id_equipment": 63, "name_town": "Aboisso", "type": "ecole", "name": "EPP Catholique", "id_town": 0 }, "geometry": { "type": "Point", "coordinates": [ -3.206034546999946, 5.473662582000032 ] } },
{ "type": "Feature", "properties": { "id_equipment": 64, "name_town": "Aboisso", "type": "ecole", "name": "EPP BAD", "id_town": 0 }, "geometry": { "type": "Point", "coordinates": [ -3.193851435999932, 5.466596365000045 ] } },
{ "type": "Feature", "properties": { "id_equipment": 71, "name_town": "Aboisso", "type": "ecole", "name": "Groupe Scolaire Municipalité", "id_town": 0 }, "geometry": { "type": "Point", "coordinates": [ -3.192864876999977, 5.476180345000047 ] } },
{ "type": "Feature", "properties": { "id_equipment": 72, "name_town": "Aboisso", "type": "ecole", "name": "Collège MUPRED", "id_town": 0 }, "geometry": { "type": "Point", "coordinates": [ -3.207112767999945, 5.465744533000021 ] } },
{ "type": "Feature", "properties": { "id_equipment": 73, "name_town": "Aboisso", "type": "ecole", "name": "CAFOP", "id_town": 0 }, "geometry": { "type": "Point", "coordinates": [ -3.188843535999979, 5.473385549000055 ] } },
{ "type": "Feature", "properties": { "id_equipment": 74, "name_town": "Aboisso", "type": "ecole", "name": "EPP Jourdin", "id_town": 0 }, "geometry": { "type": "Point", "coordinates": [ -3.212319665999928, 5.457552396000041 ] } },
{ "type": "Feature", "properties": { "id_equipment": 81, "name_town": "Aboisso", "type": "ecole", "name": "Collège CSCA", "id_town": 0 }, "geometry": { "type": "Point", "coordinates": [ -3.210880936999956, 5.454152242000022 ] } },
{ "type": "Feature", "properties": { "id_equipment": 94, "name_town": "Aboisso", "type": "ecole", "name": "EPP T.P", "id_town": 0 }, "geometry": { "type": "Point", "coordinates": [ -3.210257944999968, 5.459959004000042 ] } },
{ "type": "Feature", "properties": { "id_equipment": 106, "name_town": "Aboisso", "type": "ecole", "name": "Ecole maternelle Soeur Amelie", "id_town": 0 }, "geometry": { "type": "Point", "coordinates": [ -3.206353581999963, 5.471223430000067 ] } },
{ "type": "Feature", "properties": { "id_equipment": 110, "name_town": "Aboisso", "type": "ecole", "name": "Lycée Moderne", "id_town": 0 }, "geometry": { "type": "Point", "coordinates": [ -3.19668792799996, 5.47901210300006 ] } },
{ "type": "Feature", "properties": { "id_equipment": 112, "name_town": "Fresco", "type": "ecole", "name": "EPP fresque 1 & 2", "id_town": 0 }, "geometry": { "type": "Point", "coordinates": [ -5.588400673999957, 5.103834816000076 ] } },
{ "type": "Feature", "properties": { "id_equipment": 114, "name_town": "Fresco", "type": "ecole", "name": "Collège moderne de Fresco", "id_town": 0 }, "geometry": { "type": "Point", "coordinates": [ -5.580491042999939, 5.110013349000043 ] } },
{ "type": "Feature", "properties": { "id_equipment": 119, "name_town": "Fresco", "type": "ecole", "name": "Ecole maternelle de Fresco", "id_town": 0 }, "geometry": { "type": "Point", "coordinates": [ -5.586431346999973, 5.101735459000055 ] } },
{ "type": "Feature", "properties": { "id_equipment": 120, "name_town": "Fresco", "type": "ecole", "name": "EPP fresque 3", "id_town": 0 }, "geometry": { "type": "Point", "coordinates": [ -5.585900507999953, 5.108205252000063 ] } },
{ "type": "Feature", "properties": { "id_equipment": 133, "name_town": "Adiake", "type": "ecole", "name": "Collège Alaba", "id_town": 0 }, "geometry": { "type": "Point", "coordinates": [ -3.311352467999939, 5.291595520000045 ] } },
{ "type": "Feature", "properties": { "id_equipment": 143, "name_town": "Adiake", "type": "ecole", "name": "Groupe Scolair& Dioulakro", "id_town": 0 }, "geometry": { "type": "Point", "coordinates": [ -3.309925723999926, 5.290206495000065 ] } },
{ "type": "Feature", "properties": { "id_equipment": 144, "name_town": "Adiake", "type": "ecole", "name": "Groupe Scolaire&Kablan Koizan", "id_town": 0 }, "geometry": { "type": "Point", "coordinates": [ -3.298394130999952, 5.27828314900006 ] } },
{ "type": "Feature", "properties": { "id_equipment": 145, "name_town": "Adiake", "type": "ecole", "name": "Groupe Scolaire&Adiake 2", "id_town": 0 }, "geometry": { "type": "Point", "coordinates": [ -3.300404126999979, 5.28855622200007 ] } },
{ "type": "Feature", "properties": { "id_equipment": 147, "name_town": "Adiake", "type": "ecole", "name": "Groupe Scolaire Municipalité", "id_town": 0 }, "geometry": { "type": "Point", "coordinates": [ -3.306387422999933, 5.279726847000065 ] } },
{ "type": "Feature", "properties": { "id_equipment": 150, "name_town": "Adiake", "type": "ecole", "name": "Ecole maternelle&La Passerelle", "id_town": 0 }, "geometry": { "type": "Point", "coordinates": [ -3.310861890999945, 5.287513095000067 ] } },
{ "type": "Feature", "properties": { "id_equipment": 161, "name_town": "Dabou", "type": "ecole", "name": null, "id_town": 0 }, "geometry": { "type": "Point", "coordinates": [ -4.350069453999936, 5.284958997000048 ] } },
{ "type": "Feature", "properties": { "id_equipment": 168, "name_town": "Tabou", "type": "ecole", "name": "Ecole Primaire Catholique", "id_town": 0 }, "geometry": { "type": "Point", "coordinates": [ -7.359416506999942, 4.419002683000032 ] } },
{ "type": "Feature", "properties": { "id_equipment": 169, "name_town": "Tabou", "type": "ecole", "name": "Ecole Primaire&Kablaké 2", "id_town": 0 }, "geometry": { "type": "Point", "coordinates": [ -7.367397316999927, 4.41213930600003 ] } },
{ "type": "Feature", "properties": { "id_equipment": 170, "name_town": "Tabou", "type": "ecole", "name": "Ecole Primaire&Kablaké", "id_town": 0 }, "geometry": { "type": "Point", "coordinates": [ -7.362486051999959, 4.419203444000062 ] } },
{ "type": "Feature", "properties": { "id_equipment": 173, "name_town": "Tabou", "type": "ecole", "name": "Ecole Primaire Yocoboué", "id_town": 0 }, "geometry": { "type": "Point", "coordinates": [ -7.351067932999975, 4.433705076000025 ] } },
{ "type": "Feature", "properties": { "id_equipment": 175, "name_town": "Tabou", "type": "ecole", "name": "Ecole Primaire Tabou 3", "id_town": 0 }, "geometry": { "type": "Point", "coordinates": [ -7.35303586399994, 4.426732342000038 ] } },
{ "type": "Feature", "properties": { "id_equipment": 177, "name_town": "Tabou", "type": "ecole", "name": "Ecole Primaire&Séwéké", "id_town": 0 }, "geometry": { "type": "Point", "coordinates": [ -7.361342321999935, 4.419434926000066 ] } },
{ "type": "Feature", "properties": { "id_equipment": 182, "name_town": "Tabou", "type": "ecole", "name": "Institut d'éducation féminine", "id_town": 0 }, "geometry": { "type": "Point", "coordinates": [ -7.359760106999949, 4.419728733000058 ] } },
{ "type": "Feature", "properties": { "id_equipment": 183, "name_town": "Tabou", "type": "ecole", "name": "Collège Le Succes", "id_town": 0 }, "geometry": { "type": "Point", "coordinates": [ -7.355970636999927, 4.420632239000043 ] } },
{ "type": "Feature", "properties": { "id_equipment": 184, "name_town": "Tabou", "type": "ecole", "name": "Ecole Primaire Tabou 2", "id_town": 0 }, "geometry": { "type": "Point", "coordinates": [ -7.361211478999969, 4.41857111500002 ] } },
{ "type": "Feature", "properties": { "id_equipment": 186, "name_town": "Tabou", "type": "ecole", "name": "Collège Tabou Modern", "id_town": 0 }, "geometry": { "type": "Point", "coordinates": [ -7.363225516999941, 4.417498410000065 ] } },
{ "type": "Feature", "properties": { "id_equipment": 188, "name_town": "Tabou", "type": "ecole", "name": "Collège GSM", "id_town": 0 }, "geometry": { "type": "Point", "coordinates": [ -7.363565930999926, 4.418579831000046 ] } },
{ "type": "Feature", "properties": { "id_equipment": 189, "name_town": "Tabou", "type": "ecole", "name": "Ecole Primaire Château", "id_town": 0 }, "geometry": { "type": "Point", "coordinates": [ -7.362984620999958, 4.418819533000034 ] } },
{ "type": "Feature", "properties": { "id_equipment": 193, "name_town": "Tabou", "type": "ecole", "name": "Ecole Primaire Tabou 1", "id_town": 0 }, "geometry": { "type": "Point", "coordinates": [ -7.357112101999975, 4.413606515000027 ] } },
{ "type": "Feature", "properties": { "id_equipment": 195, "name_town": "Tabou", "type": "ecole", "name": "Lycée Tabou", "id_town": 0 }, "geometry": { "type": "Point", "coordinates": [ -7.350857522999951, 4.435761306000075 ] } },
{ "type": "Feature", "properties": { "id_equipment": 197, "name_town": "Bouake", "type": "ecole", "name": "Ecole CNPS", "id_town": 0 }, "geometry": { "type": "Point", "coordinates": [ -5.033982711999955, 7.707316766000077 ] } },
{ "type": "Feature", "properties": { "id_equipment": 199, "name_town": "Abidjan", "type": "ecole", "name": null, "id_town": 0 }, "geometry": { "type": "Point", "coordinates": [ -4.005, 5.414 ] } },
{ "type": "Feature", "properties": { "id_equipment": 200, "name_town": "Abidjan", "type": "ecole", "name": null, "id_town": 0 }, "geometry": { "type": "Point", "coordinates": [ -3.9992, 5.4109 ] } },
{ "type": "Feature", "properties": { "id_equipment": 201, "name_town": "Abidjan", "type": "ecole", "name": null, "id_town": 0 }, "geometry": { "type": "Point", "coordinates": [ -3.9956, 5.4121 ] } },
{ "type": "Feature", "properties": { "id_equipment": 204, "name_town": "Abidjan", "type": "ecole", "name": null, "id_town": 0 }, "geometry": { "type": "Point", "coordinates": [ -4.0034, 5.4201 ] } },
{ "type": "Feature", "properties": { "id_equipment": 207, "name_town": "Abidjan", "type": "ecole", "name": null, "id_town": 0 }, "geometry": { "type": "Point", "coordinates": [ -4.007, 5.419 ] } },
{ "type": "Feature", "properties": { "id_equipment": 215, "name_town": "Abidjan", "type": "ecole", "name": null, "id_town": 0 }, "geometry": { "type": "Point", "coordinates": [ -4.0107, 5.4159 ] } },
{ "type": "Feature", "properties": { "id_equipment": 216, "name_town": "Abidjan", "type": "ecole", "name": null, "id_town": 0 }, "geometry": { "type": "Point", "coordinates": [ -4.0111, 5.4143 ] } },
{ "type": "Feature", "properties": { "id_equipment": 217, "name_town": "Abidjan", "type": "ecole", "name": null, "id_town": 0 }, "geometry": { "type": "Point", "coordinates": [ -4.0123, 5.4141 ] } },
{ "type": "Feature", "properties": { "id_equipment": 220, "name_town": "Abidjan", "type": "ecole", "name": null, "id_town": 0 }, "geometry": { "type": "Point", "coordinates": [ -4.0167, 5.4157 ] } },
{ "type": "Feature", "properties": { "id_equipment": 222, "name_town": "Abidjan", "type": "ecole", "name": null, "id_town": 0 }, "geometry": { "type": "Point", "coordinates": [ -4.0193, 5.4058 ] } },
{ "type": "Feature", "properties": { "id_equipment": 224, "name_town": "Abidjan", "type": "ecole", "name": "Collège Anador", "id_town": 0 }, "geometry": { "type": "Point", "coordinates": [ -4.0141, 5.407 ] } },
{ "type": "Feature", "properties": { "id_equipment": 225, "name_town": null, "type": "lycée", "name": "Lycée le Mahou", "id_town": 0 }, "geometry": { "type": "Point", "coordinates": [ -3.9974, 5.3981 ] } },
{ "type": "Feature", "properties": { "id_equipment": 226, "name_town": null, "type": "ecole", "name": "Collège Anador", "id_town": 0 }, "geometry": { "type": "Point", "coordinates": [ -4.0149, 5.4079 ] } },
{ "type": "Feature", "properties": { "id_equipment": 229, "name_town": "Abidjan", "type": "ecole", "name": null, "id_town": 0 }, "geometry": { "type": "Point", "coordinates": [ -4.078, 5.3448 ] } },
{ "type": "Feature", "properties": { "id_equipment": 239, "name_town": "Abidjan", "type": "ecole", "name": null, "id_town": 0 }, "geometry": { "type": "Point", "coordinates": [ -4.0697, 5.3457 ] } },
{ "type": "Feature", "properties": { "id_equipment": 240, "name_town": "Abidjan", "type": "ecole", "name": null, "id_town": 0 }, "geometry": { "type": "Point", "coordinates": [ -4.0703, 5.3452 ] } },
{ "type": "Feature", "properties": { "id_equipment": 242, "name_town": "Abidjan", "type": "ecole", "name": null, "id_town": 0 }, "geometry": { "type": "Point", "coordinates": [ -4.0727, 5.3443 ] } },
{ "type": "Feature", "properties": { "id_equipment": 243, "name_town": "Abidjan", "type": "ecole", "name": null, "id_town": 0 }, "geometry": { "type": "Point", "coordinates": [ -4.083, 5.3433 ] } },
{ "type": "Feature", "properties": { "id_equipment": 245, "name_town": "Abidjan", "type": "ecole", "name": null, "id_town": 0 }, "geometry": { "type": "Point", "coordinates": [ -4.0811, 5.329 ] } },
{ "type": "Feature", "properties": { "id_equipment": 246, "name_town": "Abidjan", "type": "ecole", "name": null, "id_town": 0 }, "geometry": { "type": "Point", "coordinates": [ -4.0812, 5.3379 ] } },
{ "type": "Feature", "properties": { "id_equipment": 247, "name_town": "Abidjan", "type": "ecole", "name": null, "id_town": 0 }, "geometry": { "type": "Point", "coordinates": [ -4.0795, 5.3297 ] } },
{ "type": "Feature", "properties": { "id_equipment": 248, "name_town": "Abidjan", "type": "ecole", "name": null, "id_town": 0 }, "geometry": { "type": "Point", "coordinates": [ -4.0775, 5.329 ] } },
{ "type": "Feature", "properties": { "id_equipment": 249, "name_town": "Abidjan", "type": "ecole", "name": null, "id_town": 0 }, "geometry": { "type": "Point", "coordinates": [ -4.0758, 5.3324 ] } },
{ "type": "Feature", "properties": { "id_equipment": 250, "name_town": "Abidjan", "type": "ecole", "name": null, "id_town": 0 }, "geometry": { "type": "Point", "coordinates": [ -4.075, 5.3327 ] } },
{ "type": "Feature", "properties": { "id_equipment": 252, "name_town": "Abidjan", "type": "ecole", "name": null, "id_town": 0 }, "geometry": { "type": "Point", "coordinates": [ -4.0717, 5.333 ] } },
{ "type": "Feature", "properties": { "id_equipment": 253, "name_town": "Abidjan", "type": "ecole", "name": null, "id_town": 0 }, "geometry": { "type": "Point", "coordinates": [ -4.0722, 5.3373 ] } },
{ "type": "Feature", "properties": { "id_equipment": 254, "name_town": "Abidjan", "type": "ecole", "name": null, "id_town": 0 }, "geometry": { "type": "Point", "coordinates": [ -4.0741, 5.3372 ] } },
{ "type": "Feature", "properties": { "id_equipment": 255, "name_town": "Abidjan", "type": "ecole", "name": null, "id_town": 0 }, "geometry": { "type": "Point", "coordinates": [ -4.0672, 5.3309 ] } },
{ "type": "Feature", "properties": { "id_equipment": 256, "name_town": "Abidjan", "type": "ecole", "name": null, "id_town": 0 }, "geometry": { "type": "Point", "coordinates": [ -4.0677, 5.3334 ] } },
{ "type": "Feature", "properties": { "id_equipment": 258, "name_town": "Abidjan", "type": "ecole", "name": null, "id_town": 0 }, "geometry": { "type": "Point", "coordinates": [ -4.07, 5.3423 ] } },
{ "type": "Feature", "properties": { "id_equipment": 259, "name_town": "Abidjan", "type": "ecole", "name": null, "id_town": 0 }, "geometry": { "type": "Point", "coordinates": [ -4.068, 5.3443 ] } },
{ "type": "Feature", "properties": { "id_equipment": 262, "name_town": "Abidjan", "type": "ecole", "name": null, "id_town": 0 }, "geometry": { "type": "Point", "coordinates": [ -4.0742, 5.3436 ] } },
{ "type": "Feature", "properties": { "id_equipment": 263, "name_town": "Abidjan", "type": "ecole", "name": null, "id_town": 0 }, "geometry": { "type": "Point", "coordinates": [ -4.0763, 5.343 ] } },
{ "type": "Feature", "properties": { "id_equipment": 264, "name_town": "Abidjan", "type": "ecole", "name": null, "id_town": 0 }, "geometry": { "type": "Point", "coordinates": [ -4.087, 5.3147 ] } },
{ "type": "Feature", "properties": { "id_equipment": 265, "name_town": "Abidjan", "type": "ecole", "name": null, "id_town": 0 }, "geometry": { "type": "Point", "coordinates": [ -4.0869, 5.3178 ] } },
{ "type": "Feature", "properties": { "id_equipment": 266, "name_town": "Abidjan", "type": "ecole", "name": null, "id_town": 0 }, "geometry": { "type": "Point", "coordinates": [ -4.0868, 5.3201 ] } },
{ "type": "Feature", "properties": { "id_equipment": 268, "name_town": "Abidjan", "type": "ecole", "name": null, "id_town": 0 }, "geometry": { "type": "Point", "coordinates": [ -4.0862, 5.3251 ] } },
{ "type": "Feature", "properties": { "id_equipment": 271, "name_town": "Abidjan", "type": "ecole", "name": null, "id_town": 0 }, "geometry": { "type": "Point", "coordinates": [ -4.0823, 5.3075 ] } },
{ "type": "Feature", "properties": { "id_equipment": 273, "name_town": "Abidjan", "type": "ecole", "name": null, "id_town": 0 }, "geometry": { "type": "Point", "coordinates": [ -4.0744, 5.3281 ] } },
{ "type": "Feature", "properties": { "id_equipment": 274, "name_town": "Abidjan", "type": "ecole", "name": null, "id_town": 0 }, "geometry": { "type": "Point", "coordinates": [ -4.0705, 5.3284 ] } },
{ "type": "Feature", "properties": { "id_equipment": 283, "name_town": null, "type": "ecole", "name": "Collège IGES", "id_town": 0 }, "geometry": { "type": "Point", "coordinates": [ -4.0814, 5.3223 ] } },
{ "type": "Feature", "properties": { "id_equipment": 291, "name_town": "Abidjan", "type": "ecole", "name": null, "id_town": 0 }, "geometry": { "type": "Point", "coordinates": [ -4.0902, 5.3274 ] } },
{ "type": "Feature", "properties": { "id_equipment": 292, "name_town": "Abidjan", "type": "ecole", "name": null, "id_town": 0 }, "geometry": { "type": "Point", "coordinates": [ -4.0891, 5.3204 ] } },
{ "type": "Feature", "properties": { "id_equipment": 294, "name_town": "Abidjan", "type": "ecole", "name": null, "id_town": 0 }, "geometry": { "type": "Point", "coordinates": [ -4.1007, 5.3375 ] } },
{ "type": "Feature", "properties": { "id_equipment": 297, "name_town": "Abidjan", "type": "ecole", "name": "Collège Sebaco", "id_town": 0 }, "geometry": { "type": "Point", "coordinates": [ -4.1098, 5.3312 ] } },
{ "type": "Feature", "properties": { "id_equipment": 298, "name_town": "Abidjan", "type": "ecole", "name": "Collège Carnot", "id_town": 0 }, "geometry": { "type": "Point", "coordinates": [ -4.1044, 5.3211 ] } },
{ "type": "Feature", "properties": { "id_equipment": 299, "name_town": "Abidjan", "type": "ecole", "name": "Lycée Municipal&Ehivet Gbagbo", "id_town": 0 }, "geometry": { "type": "Point", "coordinates": [ -4.1003, 5.3181 ] } },
{ "type": "Feature", "properties": { "id_equipment": 301, "name_town": null, "type": "lycée", "name": "Lycée Municipal&Ehivet GBAGBO", "id_town": 0 }, "geometry": { "type": "Point", "coordinates": [ -4.1033, 5.3183 ] } },
{ "type": "Feature", "properties": { "id_equipment": 304, "name_town": "Abengourou", "type": "ecole", "name": "Ecole Primaire St Anna Marie", "id_town": 0 }, "geometry": { "type": "Point", "coordinates": [ -3.515415861999942, 6.731874568000025 ] } },
{ "type": "Feature", "properties": { "id_equipment": 305, "name_town": "Bangolo", "type": "ecole", "name": "EPP Guiglo-Zagna", "id_town": 0 }, "geometry": { "type": "Point", "coordinates": [ -7.486163768999973, 6.994033084000026 ] } },
{ "type": "Feature", "properties": { "id_equipment": 309, "name_town": "Abengourou", "type": "ecole", "name": "EPP Geobeton", "id_town": 0 }, "geometry": { "type": "Point", "coordinates": [ -3.51468846399996, 6.727701010000035 ] } },
{ "type": "Feature", "properties": { "id_equipment": 312, "name_town": null, "type": "ecole", "name": "Collège Sebaco", "id_town": 0 }, "geometry": { "type": "Point", "coordinates": [ -4.1101, 5.3304 ] } },
{ "type": "Feature", "properties": { "id_equipment": 313, "name_town": null, "type": "ecole", "name": "Collège Anador", "id_town": 0 }, "geometry": { "type": "Point", "coordinates": [ -4.1047, 5.3352 ] } },
{ "type": "Feature", "properties": { "id_equipment": 315, "name_town": null, "type": "ecole", "name": "Collège Carnot", "id_town": 0 }, "geometry": { "type": "Point", "coordinates": [ -4.106, 5.3215 ] } },
{ "type": "Feature", "properties": { "id_equipment": 323, "name_town": "Abidjan", "type": "ecole", "name": null, "id_town": 0 }, "geometry": { "type": "Point", "coordinates": [ -4.0025, 5.3328 ] } },
{ "type": "Feature", "properties": { "id_equipment": 324, "name_town": "Abidjan", "type": "ecole", "name": "Collège Mermoz", "id_town": 0 }, "geometry": { "type": "Point", "coordinates": [ -3.998, 5.3398 ] } },
{ "type": "Feature", "properties": { "id_equipment": 325, "name_town": "Abidjan", "type": "ecole", "name": "Lycée Classique d'Abidjan", "id_town": 0 }, "geometry": { "type": "Point", "coordinates": [ -4.0056, 5.3316 ] } },
{ "type": "Feature", "properties": { "id_equipment": 329, "name_town": "Bangolo", "type": "ecole", "name": "EPP Bangolo 2", "id_town": 0 }, "geometry": { "type": "Point", "coordinates": [ -7.485167297999966, 7.031587459000036 ] } },
{ "type": "Feature", "properties": { "id_equipment": 344, "name_town": "Abidjan", "type": "ecole", "name": null, "id_town": 0 }, "geometry": { "type": "Point", "coordinates": [ -4.0024, 5.3127 ] } },
{ "type": "Feature", "properties": { "id_equipment": 348, "name_town": "Abidjan", "type": "ecole", "name": null, "id_town": 0 }, "geometry": { "type": "Point", "coordinates": [ -4.0032, 5.3119 ] } },
{ "type": "Feature", "properties": { "id_equipment": 349, "name_town": "Abidjan", "type": "ecole", "name": null, "id_town": 0 }, "geometry": { "type": "Point", "coordinates": [ -4.001, 5.3076 ] } },
{ "type": "Feature", "properties": { "id_equipment": 350, "name_town": "Abidjan", "type": "ecole", "name": null, "id_town": 0 }, "geometry": { "type": "Point", "coordinates": [ -4.0009, 5.3062 ] } },
{ "type": "Feature", "properties": { "id_equipment": 352, "name_town": "Abidjan", "type": "ecole", "name": null, "id_town": 0 }, "geometry": { "type": "Point", "coordinates": [ -4.0036, 5.3058 ] } },
{ "type": "Feature", "properties": { "id_equipment": 354, "name_town": "Abidjan", "type": "ecole", "name": null, "id_town": 0 }, "geometry": { "type": "Point", "coordinates": [ -4.003, 5.3036 ] } },
{ "type": "Feature", "properties": { "id_equipment": 355, "name_town": "Abidjan", "type": "ecole", "name": null, "id_town": 0 }, "geometry": { "type": "Point", "coordinates": [ -3.9967, 5.301 ] } },
{ "type": "Feature", "properties": { "id_equipment": 357, "name_town": "Daoukro", "type": "ecole", "name": "Lycée Ivoire", "id_town": 0 }, "geometry": { "type": "Point", "coordinates": [ -3.966139047999946, 7.046274684000028 ] } },
{ "type": "Feature", "properties": { "id_equipment": 373, "name_town": "Yamoussoukro", "type": "ecole", "name": "Collège Kouakou Aurelie", "id_town": 0 }, "geometry": { "type": "Point", "coordinates": [ -5.250884116869325, 6.83847269980402 ] } },
{ "type": "Feature", "properties": { "id_equipment": 375, "name_town": "Ferkessedougou", "type": "ecole", "name": "Ecole Primaire BAD", "id_town": 0 }, "geometry": { "type": "Point", "coordinates": [ -5.212456243999952, 9.594684702000055 ] } },
{ "type": "Feature", "properties": { "id_equipment": 376, "name_town": "Brobo", "type": "ecole", "name": "Collège LAH", "id_town": 0 }, "geometry": { "type": "Point", "coordinates": [ -4.82318288299996, 7.646170359000053 ] } },
{ "type": "Feature", "properties": { "id_equipment": 378, "name_town": "Brobo", "type": "ecole", "name": "EPP St George", "id_town": 0 }, "geometry": { "type": "Point", "coordinates": [ -4.821005052999965, 7.646930556000031 ] } },
{ "type": "Feature", "properties": { "id_equipment": 379, "name_town": "Adiake", "type": "ecole", "name": "Lycée Moderne", "id_town": 0 }, "geometry": { "type": "Point", "coordinates": [ -3.323157840999954, 5.294193699000063 ] } },
{ "type": "Feature", "properties": { "id_equipment": 380, "name_town": "Djebonoua", "type": "ecole", "name": null, "id_town": 0 }, "geometry": { "type": "Point", "coordinates": [ -5.084501562999948, 7.520174430000057 ] } },
{ "type": "Feature", "properties": { "id_equipment": 381, "name_town": "Katiola", "type": "ecole", "name": "EPP Nandieplekahia", "id_town": 0 }, "geometry": { "type": "Point", "coordinates": [ -5.099090450999938, 8.153656007000055 ] } },
{ "type": "Feature", "properties": { "id_equipment": 385, "name_town": null, "type": "ecole", "name": "Collège A. Malraux", "id_town": 0 }, "geometry": { "type": "Point", "coordinates": [ -3.9803, 5.3567 ] } },
{ "type": "Feature", "properties": { "id_equipment": 386, "name_town": "Grand-lahou", "type": "ecole", "name": "Ecole Primaire Lahou 1 & 2", "id_town": 0 }, "geometry": { "type": "Point", "coordinates": [ -4.997174344999963, 5.248058429000025 ] } },
{ "type": "Feature", "properties": { "id_equipment": 388, "name_town": "Zuenoula", "type": "ecole", "name": "Lycée Le Savoir", "id_town": 0 }, "geometry": { "type": "Point", "coordinates": [ -6.038473556999977, 7.421655391000058 ] } },
{ "type": "Feature", "properties": { "id_equipment": 390, "name_town": "Grand-lahou", "type": "ecole", "name": "Ecole de formation Professionelle", "id_town": 0 }, "geometry": { "type": "Point", "coordinates": [ -4.996247627999935, 5.224356919000059 ] } },
{ "type": "Feature", "properties": { "id_equipment": 392, "name_town": "Aboisso", "type": "ecole", "name": "EPP Sokoura 1 & 2", "id_town": 0 }, "geometry": { "type": "Point", "coordinates": [ -3.212097082999947, 5.482634702000042 ] } },
{ "type": "Feature", "properties": { "id_equipment": 394, "name_town": "Aboisso", "type": "ecole", "name": "EPP Bad Koliahiwa", "id_town": 0 }, "geometry": { "type": "Point", "coordinates": [ -3.203441961999944, 5.480535844000031 ] } },
{ "type": "Feature", "properties": { "id_equipment": 397, "name_town": "Seguela", "type": "ecole", "name": "Collège Worodougou", "id_town": 0 }, "geometry": { "type": "Point", "coordinates": [ -6.688585647999958, 7.969238020000036 ] } },
{ "type": "Feature", "properties": { "id_equipment": 399, "name_town": "Ferkessedougou", "type": "ecole", "name": "Ecole Primaire EPP Gare", "id_town": 0 }, "geometry": { "type": "Point", "coordinates": [ -5.179728186999968, 9.578261651000052 ] } },
{ "type": "Feature", "properties": { "id_equipment": 401, "name_town": "M'bahiakro", "type": "ecole", "name": "Collège ASSA", "id_town": 0 }, "geometry": { "type": "Point", "coordinates": [ -4.351940629999945, 7.45553244100006 ] } },
{ "type": "Feature", "properties": { "id_equipment": 402, "name_town": "Bouafle", "type": "ecole", "name": "Lycée BIA", "id_town": 0 }, "geometry": { "type": "Point", "coordinates": [ -5.74976966199995, 6.973360355000069 ] } },
{ "type": "Feature", "properties": { "id_equipment": 403, "name_town": "Sassandra", "type": "ecole", "name": "Lycée Moderne&de Sassandra", "id_town": 0 }, "geometry": { "type": "Point", "coordinates": [ -6.095176400999948, 4.94078448000005 ] } },
{ "type": "Feature", "properties": { "id_equipment": 404, "name_town": "Tiebissou", "type": "ecole", "name": "EPP Tiebissou-Baoulekro", "id_town": 0 }, "geometry": { "type": "Point", "coordinates": [ -5.226529268999968, 7.170231217000038 ] } },
{ "type": "Feature", "properties": { "id_equipment": 408, "name_town": "Dabou", "type": "ecole", "name": "École primaire EPP Agneby", "id_town": 0 }, "geometry": { "type": "Point", "coordinates": [ -4.348316013999977, 5.324566207000033 ] } },
{ "type": "Feature", "properties": { "id_equipment": 410, "name_town": "Adiake", "type": "ecole", "name": "Collège&Ste Anne-Marie", "id_town": 0 }, "geometry": { "type": "Point", "coordinates": [ -3.294388709999964, 5.291320188000043 ] } },
{ "type": "Feature", "properties": { "id_equipment": 412, "name_town": "Tiebissou", "type": "ecole", "name": "Collège Bill Gates", "id_town": 0 }, "geometry": { "type": "Point", "coordinates": [ -5.232444062999947, 7.147365874000059 ] } },
{ "type": "Feature", "properties": { "id_equipment": 413, "name_town": "Seguela", "type": "ecole", "name": "Collège Moderne BAD", "id_town": 0 }, "geometry": { "type": "Point", "coordinates": [ -6.654976534999951, 7.957282273000035 ] } },
{ "type": "Feature", "properties": { "id_equipment": 414, "name_town": "Katiola", "type": "ecole", "name": "EPP Konankaha 2", "id_town": 0 }, "geometry": { "type": "Point", "coordinates": [ -5.113613744999953, 8.126614729000041 ] } },
{ "type": "Feature", "properties": { "id_equipment": 415, "name_town": "Dabou", "type": "ecole", "name": "Lycée Mgr René Kouassi", "id_town": 0 }, "geometry": { "type": "Point", "coordinates": [ -4.400673609999956, 5.322699991000036 ] } },
{ "type": "Feature", "properties": { "id_equipment": 419, "name_town": "Yamoussoukro", "type": "ecole", "name": "Ecole Primaire Kami", "id_town": 0 }, "geometry": { "type": "Point", "coordinates": [ -5.278094523999927, 6.877935174000074 ] } },
{ "type": "Feature", "properties": { "id_equipment": 423, "name_town": "Abidjan", "type": "ecole", "name": null, "id_town": 0 }, "geometry": { "type": "Point", "coordinates": [ -3.9364, 5.3737 ] } },
{ "type": "Feature", "properties": { "id_equipment": 425, "name_town": "Yamoussoukro", "type": "ecole", "name": "ESA - ESCFC", "id_town": 0 }, "geometry": { "type": "Point", "coordinates": [ -5.225073590999956, 6.891411344000065 ] } },
{ "type": "Feature", "properties": { "id_equipment": 426, "name_town": "Abidjan", "type": "ecole", "name": "Ecole Forestière", "id_town": 0 }, "geometry": { "type": "Point", "coordinates": [ -4.053, 5.3861 ] } },
{ "type": "Feature", "properties": { "id_equipment": 428, "name_town": "Abidjan", "type": "ecole", "name": null, "id_town": 0 }, "geometry": { "type": "Point", "coordinates": [ -3.978, 5.4192 ] } },
{ "type": "Feature", "properties": { "id_equipment": 458, "name_town": "Daoukro", "type": "ecole", "name": "Lycée N'Siflouwa", "id_town": 0 }, "geometry": { "type": "Point", "coordinates": [ -3.989470204999976, 7.056431405000071 ] } },
{ "type": "Feature", "properties": { "id_equipment": 461, "name_town": null, "type": "ecole", "name": "Ecole Forestière", "id_town": 0 }, "geometry": { "type": "Point", "coordinates": [ -4.0544, 5.3864 ] } },
{ "type": "Feature", "properties": { "id_equipment": 466, "name_town": "Danane", "type": "ecole", "name": "Mission catholique", "id_town": 0 }, "geometry": { "type": "Point", "coordinates": [ -8.150046800999974, 7.259075225000062 ] } },
{ "type": "Feature", "properties": { "id_equipment": 467, "name_town": "Danane", "type": "ecole", "name": "EPP Dioulabougou", "id_town": 0 }, "geometry": { "type": "Point", "coordinates": [ -8.159936710999945, 7.259137102000071 ] } },
{ "type": "Feature", "properties": { "id_equipment": 468, "name_town": "Danane", "type": "ecole", "name": "Ecole Primaire&Gningleu", "id_town": 0 }, "geometry": { "type": "Point", "coordinates": [ -8.155348430999936, 7.24744906600006 ] } },
{ "type": "Feature", "properties": { "id_equipment": 471, "name_town": "Danane", "type": "ecole", "name": "Ecole Primaire Bleussaleu", "id_town": 0 }, "geometry": { "type": "Point", "coordinates": [ -8.14624411899996, 7.260839037000041 ] } },
{ "type": "Feature", "properties": { "id_equipment": 473, "name_town": "Danane", "type": "ecole", "name": "Préscolaire", "id_town": 0 }, "geometry": { "type": "Point", "coordinates": [ -8.154543264999973, 7.262310090000029 ] } },
{ "type": "Feature", "properties": { "id_equipment": 478, "name_town": "Danane", "type": "ecole", "name": "Ecole Primaire de TP", "id_town": 0 }, "geometry": { "type": "Point", "coordinates": [ -8.148042873999943, 7.273906150000075 ] } },
{ "type": "Feature", "properties": { "id_equipment": 480, "name_town": "Danane", "type": "ecole", "name": "Ecole Primaire 3", "id_town": 0 }, "geometry": { "type": "Point", "coordinates": [ -8.152257884999926, 7.267975525000055 ] } },
{ "type": "Feature", "properties": { "id_equipment": 481, "name_town": "Danane", "type": "ecole", "name": "Lycée ROSSEAU", "id_town": 0 }, "geometry": { "type": "Point", "coordinates": [ -8.145676683999968, 7.264749238000038 ] } },
{ "type": "Feature", "properties": { "id_equipment": 482, "name_town": "Danane", "type": "ecole", "name": "Ecole coranique", "id_town": 0 }, "geometry": { "type": "Point", "coordinates": [ -8.165226469999936, 7.263671373000023 ] } },
{ "type": "Feature", "properties": { "id_equipment": 485, "name_town": "Danane", "type": "ecole", "name": null, "id_town": 0 }, "geometry": { "type": "Point", "coordinates": [ -8.151073682999936, 7.26198360500007 ] } },
{ "type": "Feature", "properties": { "id_equipment": 495, "name_town": "Danane", "type": "ecole", "name": "Lycée Moderne", "id_town": 0 }, "geometry": { "type": "Point", "coordinates": [ -8.147140555999956, 7.265787633000061 ] } },
{ "type": "Feature", "properties": { "id_equipment": 496, "name_town": "Danane", "type": "ecole", "name": "Ecole Primaire de l'inspection", "id_town": 0 }, "geometry": { "type": "Point", "coordinates": [ -8.147854314999963, 7.266483994000057 ] } },
{ "type": "Feature", "properties": { "id_equipment": 501, "name_town": "Abidjan", "type": "ecole", "name": null, "id_town": 0 }, "geometry": { "type": "Point", "coordinates": [ -3.9557, 5.3503 ] } },
{ "type": "Feature", "properties": { "id_equipment": 502, "name_town": "Abidjan", "type": "ecole", "name": null, "id_town": 0 }, "geometry": { "type": "Point", "coordinates": [ -3.9517, 5.3515 ] } },
{ "type": "Feature", "properties": { "id_equipment": 503, "name_town": "Abidjan", "type": "ecole", "name": null, "id_town": 0 }, "geometry": { "type": "Point", "coordinates": [ -3.9518, 5.348 ] } },
{ "type": "Feature", "properties": { "id_equipment": 506, "name_town": "Abidjan", "type": "ecole", "name": null, "id_town": 0 }, "geometry": { "type": "Point", "coordinates": [ -3.9763, 5.3535 ] } },
{ "type": "Feature", "properties": { "id_equipment": 509, "name_town": "Abidjan", "type": "ecole", "name": null, "id_town": 0 }, "geometry": { "type": "Point", "coordinates": [ -3.9557, 5.3504 ] } },
{ "type": "Feature", "properties": { "id_equipment": 510, "name_town": "Abidjan", "type": "ecole", "name": "Groupe scolaire Victor Schoelcher", "id_town": 0 }, "geometry": { "type": "Point", "coordinates": [ -3.9664, 5.3589 ] } },
{ "type": "Feature", "properties": { "id_equipment": 511, "name_town": "Abidjan", "type": "ecole", "name": null, "id_town": 0 }, "geometry": { "type": "Point", "coordinates": [ -3.9509, 5.368 ] } },
{ "type": "Feature", "properties": { "id_equipment": 512, "name_town": "Abidjan", "type": "ecole", "name": null, "id_town": 0 }, "geometry": { "type": "Point", "coordinates": [ -3.9638, 5.3692 ] } },
{ "type": "Feature", "properties": { "id_equipment": 514, "name_town": "Abidjan", "type": "ecole", "name": null, "id_town": 0 }, "geometry": { "type": "Point", "coordinates": [ -3.9685, 5.354 ] } },
{ "type": "Feature", "properties": { "id_equipment": 516, "name_town": "Abidjan", "type": "ecole", "name": null, "id_town": 0 }, "geometry": { "type": "Point", "coordinates": [ -3.9597, 5.3584 ] } },
{ "type": "Feature", "properties": { "id_equipment": 517, "name_town": "Abidjan", "type": "ecole", "name": null, "id_town": 0 }, "geometry": { "type": "Point", "coordinates": [ -3.955, 5.3588 ] } },
{ "type": "Feature", "properties": { "id_equipment": 522, "name_town": "Abidjan", "type": "ecole", "name": null, "id_town": 0 }, "geometry": { "type": "Point", "coordinates": [ -3.9673, 5.3644 ] } },
{ "type": "Feature", "properties": { "id_equipment": 523, "name_town": null, "type": "ecole", "name": "Groupe scolaire&Victor Schoelcher", "id_town": 0 }, "geometry": { "type": "Point", "coordinates": [ -3.9683, 5.36 ] } },
{ "type": "Feature", "properties": { "id_equipment": 524, "name_town": null, "type": "lycée", "name": "Lycée&Blaise Pascal", "id_town": 0 }, "geometry": { "type": "Point", "coordinates": [ -3.9527, 5.3528 ] } },
{ "type": "Feature", "properties": { "id_equipment": 528, "name_town": "Beoumi", "type": "ecole", "name": "Lycée de Béoumi", "id_town": 0 }, "geometry": { "type": "Point", "coordinates": [ -5.568922204999978, 7.661911399000077 ] } },
{ "type": "Feature", "properties": { "id_equipment": 530, "name_town": "Guiglo", "type": "ecole", "name": "Lycée Sekala", "id_town": 0 }, "geometry": { "type": "Point", "coordinates": [ -7.483790997999961, 6.530601935000051 ] } },
{ "type": "Feature", "properties": { "id_equipment": 536, "name_town": "Abidjan", "type": "ecole", "name": null, "id_town": 0 }, "geometry": { "type": "Point", "coordinates": [ -4.0197, 5.3531 ] } },
{ "type": "Feature", "properties": { "id_equipment": 537, "name_town": "Abidjan", "type": "ecole", "name": null, "id_town": 0 }, "geometry": { "type": "Point", "coordinates": [ -4.0177, 5.3519 ] } },
{ "type": "Feature", "properties": { "id_equipment": 538, "name_town": "Abidjan", "type": "ecole", "name": "Collège Lemania", "id_town": 0 }, "geometry": { "type": "Point", "coordinates": [ -3.9835, 5.3597 ] } },
{ "type": "Feature", "properties": { "id_equipment": 545, "name_town": "Abidjan", "type": "ecole", "name": null, "id_town": 0 }, "geometry": { "type": "Point", "coordinates": [ -3.9963, 5.3828 ] } },
{ "type": "Feature", "properties": { "id_equipment": 547, "name_town": "Abidjan", "type": "ecole", "name": null, "id_town": 0 }, "geometry": { "type": "Point", "coordinates": [ -3.9969, 5.3614 ] } },
{ "type": "Feature", "properties": { "id_equipment": 548, "name_town": "Abidjan", "type": "ecole", "name": null, "id_town": 0 }, "geometry": { "type": "Point", "coordinates": [ -3.9921, 5.3765 ] } },
{ "type": "Feature", "properties": { "id_equipment": 549, "name_town": "Abidjan", "type": "ecole", "name": null, "id_town": 0 }, "geometry": { "type": "Point", "coordinates": [ -3.9904, 5.3688 ] } },
{ "type": "Feature", "properties": { "id_equipment": 550, "name_town": "Abidjan", "type": "ecole", "name": null, "id_town": 0 }, "geometry": { "type": "Point", "coordinates": [ -3.9947, 5.36 ] } },
{ "type": "Feature", "properties": { "id_equipment": 551, "name_town": "Abidjan", "type": "ecole", "name": null, "id_town": 0 }, "geometry": { "type": "Point", "coordinates": [ -4.0095, 5.3506 ] } },
{ "type": "Feature", "properties": { "id_equipment": 552, "name_town": "Abidjan", "type": "ecole", "name": null, "id_town": 0 }, "geometry": { "type": "Point", "coordinates": [ -4.018, 5.3488 ] } },
{ "type": "Feature", "properties": { "id_equipment": 555, "name_town": "Abidjan", "type": "ecole", "name": null, "id_town": 0 }, "geometry": { "type": "Point", "coordinates": [ -3.999, 5.3472 ] } },
{ "type": "Feature", "properties": { "id_equipment": 562, "name_town": "Abidjan", "type": "ecole", "name": null, "id_town": 0 }, "geometry": { "type": "Point", "coordinates": [ -3.99, 5.3607 ] } },
{ "type": "Feature", "properties": { "id_equipment": 567, "name_town": "Abidjan", "type": "ecole", "name": null, "id_town": 0 }, "geometry": { "type": "Point", "coordinates": [ -3.9818, 5.3704 ] } },
{ "type": "Feature", "properties": { "id_equipment": 568, "name_town": "Abidjan", "type": "ecole", "name": null, "id_town": 0 }, "geometry": { "type": "Point", "coordinates": [ -3.9808, 5.3668 ] } },
{ "type": "Feature", "properties": { "id_equipment": 572, "name_town": "Abidjan", "type": "ecole", "name": null, "id_town": 0 }, "geometry": { "type": "Point", "coordinates": [ -3.9786, 5.3509 ] } },
{ "type": "Feature", "properties": { "id_equipment": 573, "name_town": "Abidjan", "type": "ecole", "name": null, "id_town": 0 }, "geometry": { "type": "Point", "coordinates": [ -3.9819, 5.3514 ] } },
{ "type": "Feature", "properties": { "id_equipment": 578, "name_town": "Abidjan", "type": "ecole", "name": null, "id_town": 0 }, "geometry": { "type": "Point", "coordinates": [ -3.9986, 5.3672 ] } },
{ "type": "Feature", "properties": { "id_equipment": 579, "name_town": "Abidjan", "type": "ecole", "name": null, "id_town": 0 }, "geometry": { "type": "Point", "coordinates": [ -3.9979, 5.3633 ] } },
{ "type": "Feature", "properties": { "id_equipment": 580, "name_town": "Abidjan", "type": "ecole", "name": null, "id_town": 0 }, "geometry": { "type": "Point", "coordinates": [ -3.997, 5.3636 ] } },
{ "type": "Feature", "properties": { "id_equipment": 581, "name_town": "Abidjan", "type": "ecole", "name": null, "id_town": 0 }, "geometry": { "type": "Point", "coordinates": [ -3.9969, 5.3601 ] } },
{ "type": "Feature", "properties": { "id_equipment": 583, "name_town": "Abidjan", "type": "ecole", "name": null, "id_town": 0 }, "geometry": { "type": "Point", "coordinates": [ -4.0024, 5.3571 ] } },
{ "type": "Feature", "properties": { "id_equipment": 584, "name_town": "Abidjan", "type": "ecole", "name": null, "id_town": 0 }, "geometry": { "type": "Point", "coordinates": [ -4.0065, 5.3525 ] } },
{ "type": "Feature", "properties": { "id_equipment": 585, "name_town": "Abidjan", "type": "ecole", "name": null, "id_town": 0 }, "geometry": { "type": "Point", "coordinates": [ -4.007, 5.3498 ] } },
{ "type": "Feature", "properties": { "id_equipment": 591, "name_town": "Abidjan", "type": "ecole", "name": null, "id_town": 0 }, "geometry": { "type": "Point", "coordinates": [ -4.0015, 5.3856 ] } },
{ "type": "Feature", "properties": { "id_equipment": 592, "name_town": "Abidjan", "type": "ecole", "name": null, "id_town": 0 }, "geometry": { "type": "Point", "coordinates": [ -4.0044, 5.3901 ] } },
{ "type": "Feature", "properties": { "id_equipment": 593, "name_town": "Abidjan", "type": "ecole", "name": null, "id_town": 0 }, "geometry": { "type": "Point", "coordinates": [ -4.0031, 5.3956 ] } },
{ "type": "Feature", "properties": { "id_equipment": 594, "name_town": "Abidjan", "type": "ecole", "name": null, "id_town": 0 }, "geometry": { "type": "Point", "coordinates": [ -4.0119, 5.3677 ] } },
{ "type": "Feature", "properties": { "id_equipment": 596, "name_town": "Abidjan", "type": "ecole", "name": null, "id_town": 0 }, "geometry": { "type": "Point", "coordinates": [ -4.0191, 5.3655 ] } },
{ "type": "Feature", "properties": { "id_equipment": 597, "name_town": "Abidjan", "type": "ecole", "name": null, "id_town": 0 }, "geometry": { "type": "Point", "coordinates": [ -4.0154, 5.3519 ] } },
{ "type": "Feature", "properties": { "id_equipment": 599, "name_town": "Abidjan", "type": "ecole", "name": null, "id_town": 0 }, "geometry": { "type": "Point", "coordinates": [ -4.0177, 5.3506 ] } },
{ "type": "Feature", "properties": { "id_equipment": 600, "name_town": "Abidjan", "type": "ecole", "name": null, "id_town": 0 }, "geometry": { "type": "Point", "coordinates": [ -4.0032, 5.3234 ] } },
{ "type": "Feature", "properties": { "id_equipment": 604, "name_town": "San-pedro", "type": "ecole", "name": "Lycée Pofessional", "id_town": 0 }, "geometry": { "type": "Point", "coordinates": [ -6.644603149999968, 4.796664876000023 ] } },
{ "type": "Feature", "properties": { "id_equipment": 605, "name_town": "Seguela", "type": "ecole", "name": "EPP Stade", "id_town": 0 }, "geometry": { "type": "Point", "coordinates": [ -6.686413665999967, 7.967645574000075 ] } },
{ "type": "Feature", "properties": { "id_equipment": 607, "name_town": "Abidjan", "type": "ecole", "name": null, "id_town": 0 }, "geometry": { "type": "Point", "coordinates": [ -4.0187, 5.3522 ] } },
{ "type": "Feature", "properties": { "id_equipment": 610, "name_town": "Abidjan", "type": "ecole", "name": null, "id_town": 0 }, "geometry": { "type": "Point", "coordinates": [ -4.0186, 5.357 ] } },
{ "type": "Feature", "properties": { "id_equipment": 629, "name_town": "Abidjan", "type": "ecole", "name": null, "id_town": 0 }, "geometry": { "type": "Point", "coordinates": [ -3.9962, 5.3921 ] } },
{ "type": "Feature", "properties": { "id_equipment": 630, "name_town": "Abidjan", "type": "ecole", "name": null, "id_town": 0 }, "geometry": { "type": "Point", "coordinates": [ -3.9931, 5.3932 ] } },
{ "type": "Feature", "properties": { "id_equipment": 634, "name_town": "Abidjan", "type": "ecole", "name": "Collège A. Malraux", "id_town": 0 }, "geometry": { "type": "Point", "coordinates": [ -3.9783, 5.3566 ] } },
{ "type": "Feature", "properties": { "id_equipment": 636, "name_town": null, "type": "ecole", "name": "Ecole de Gendarmerie", "id_town": 0 }, "geometry": { "type": "Point", "coordinates": [ -3.9962, 5.3516 ] } },
{ "type": "Feature", "properties": { "id_equipment": 637, "name_town": null, "type": "ecole", "name": "Ecole de Police", "id_town": 0 }, "geometry": { "type": "Point", "coordinates": [ -3.9895, 5.3522 ] } },
{ "type": "Feature", "properties": { "id_equipment": 643, "name_town": "Abidjan", "type": "ecole", "name": null, "id_town": 0 }, "geometry": { "type": "Point", "coordinates": [ -4.0211, 5.3228 ] } },
{ "type": "Feature", "properties": { "id_equipment": 646, "name_town": "Abidjan", "type": "ecole", "name": null, "id_town": 0 }, "geometry": { "type": "Point", "coordinates": [ -4.0201, 5.3303 ] } },
{ "type": "Feature", "properties": { "id_equipment": 647, "name_town": "Abidjan", "type": "ecole", "name": null, "id_town": 0 }, "geometry": { "type": "Point", "coordinates": [ -4.0341, 5.3451 ] } },
{ "type": "Feature", "properties": { "id_equipment": 648, "name_town": "Abidjan", "type": "ecole", "name": null, "id_town": 0 }, "geometry": { "type": "Point", "coordinates": [ -4.0321, 5.3405 ] } },
{ "type": "Feature", "properties": { "id_equipment": 649, "name_town": "Abidjan", "type": "ecole", "name": null, "id_town": 0 }, "geometry": { "type": "Point", "coordinates": [ -4.0305, 5.3435 ] } },
{ "type": "Feature", "properties": { "id_equipment": 655, "name_town": "Abidjan", "type": "ecole", "name": null, "id_town": 0 }, "geometry": { "type": "Point", "coordinates": [ -4.0222, 5.345 ] } },
{ "type": "Feature", "properties": { "id_equipment": 656, "name_town": "Abidjan", "type": "ecole", "name": null, "id_town": 0 }, "geometry": { "type": "Point", "coordinates": [ -4.0234, 5.345 ] } },
{ "type": "Feature", "properties": { "id_equipment": 657, "name_town": "Abidjan", "type": "ecole", "name": null, "id_town": 0 }, "geometry": { "type": "Point", "coordinates": [ -4.0283, 5.3414 ] } },
{ "type": "Feature", "properties": { "id_equipment": 660, "name_town": "Abidjan", "type": "ecole", "name": null, "id_town": 0 }, "geometry": { "type": "Point", "coordinates": [ -4.0221, 5.3294 ] } },
{ "type": "Feature", "properties": { "id_equipment": 663, "name_town": "Abidjan", "type": "ecole", "name": null, "id_town": 0 }, "geometry": { "type": "Point", "coordinates": [ -4.0338, 5.3128 ] } },
{ "type": "Feature", "properties": { "id_equipment": 676, "name_town": "Abidjan", "type": "ecole", "name": null, "id_town": 0 }, "geometry": { "type": "Point", "coordinates": [ -3.998, 5.333 ] } },
{ "type": "Feature", "properties": { "id_equipment": 681, "name_town": "Bouafle", "type": "ecole", "name": "EPP Solibra", "id_town": 0 }, "geometry": { "type": "Point", "coordinates": [ -5.763667914999929, 6.972353179000041 ] } },
{ "type": "Feature", "properties": { "id_equipment": 684, "name_town": "Guiglo", "type": "ecole", "name": "Ecole Primaire St Joseph", "id_town": 0 }, "geometry": { "type": "Point", "coordinates": [ -7.501398458999971, 6.547213654000076 ] } },
{ "type": "Feature", "properties": { "id_equipment": 685, "name_town": "Abidjan", "type": "ecole", "name": null, "id_town": 0 }, "geometry": { "type": "Point", "coordinates": [ -4.0202, 5.3257 ] } },
{ "type": "Feature", "properties": { "id_equipment": 689, "name_town": "Abidjan", "type": "ecole", "name": null, "id_town": 0 }, "geometry": { "type": "Point", "coordinates": [ -4.0206, 5.3446 ] } },
{ "type": "Feature", "properties": { "id_equipment": 692, "name_town": "Abidjan", "type": "ecole", "name": null, "id_town": 0 }, "geometry": { "type": "Point", "coordinates": [ -4.0409, 5.3334 ] } },
{ "type": "Feature", "properties": { "id_equipment": 693, "name_town": "Abidjan", "type": "ecole", "name": null, "id_town": 0 }, "geometry": { "type": "Point", "coordinates": [ -4.0372, 5.3288 ] } },
{ "type": "Feature", "properties": { "id_equipment": 698, "name_town": "Abidjan", "type": "ecole", "name": null, "id_town": 0 }, "geometry": { "type": "Point", "coordinates": [ -4.0394, 5.3163 ] } },
{ "type": "Feature", "properties": { "id_equipment": 699, "name_town": "Abidjan", "type": "ecole", "name": null, "id_town": 0 }, "geometry": { "type": "Point", "coordinates": [ -4.0408, 5.3168 ] } },
{ "type": "Feature", "properties": { "id_equipment": 702, "name_town": "Abidjan", "type": "ecole", "name": null, "id_town": 0 }, "geometry": { "type": "Point", "coordinates": [ -4.0372, 5.3105 ] } },
{ "type": "Feature", "properties": { "id_equipment": 719, "name_town": null, "type": "ecole", "name": "Grands Moulins", "id_town": 0 }, "geometry": { "type": "Point", "coordinates": [ -4.0232, 5.3076 ] } },
{ "type": "Feature", "properties": { "id_equipment": 722, "name_town": "Abidjan", "type": "ecole", "name": null, "id_town": 0 }, "geometry": { "type": "Point", "coordinates": [ -4.063, 5.3129 ] } },
{ "type": "Feature", "properties": { "id_equipment": 724, "name_town": "Abidjan", "type": "ecole", "name": null, "id_town": 0 }, "geometry": { "type": "Point", "coordinates": [ -4.0514, 5.3242 ] } },
{ "type": "Feature", "properties": { "id_equipment": 725, "name_town": "Abidjan", "type": "ecole", "name": null, "id_town": 0 }, "geometry": { "type": "Point", "coordinates": [ -4.0515, 5.3263 ] } },
{ "type": "Feature", "properties": { "id_equipment": 726, "name_town": "Abidjan", "type": "ecole", "name": null, "id_town": 0 }, "geometry": { "type": "Point", "coordinates": [ -4.0494, 5.3296 ] } },
{ "type": "Feature", "properties": { "id_equipment": 727, "name_town": "Abidjan", "type": "ecole", "name": null, "id_town": 0 }, "geometry": { "type": "Point", "coordinates": [ -4.0638, 5.3375 ] } },
{ "type": "Feature", "properties": { "id_equipment": 735, "name_town": "Abidjan", "type": "ecole", "name": null, "id_town": 0 }, "geometry": { "type": "Point", "coordinates": [ -4.0631, 5.334 ] } },
{ "type": "Feature", "properties": { "id_equipment": 736, "name_town": "Abidjan", "type": "ecole", "name": null, "id_town": 0 }, "geometry": { "type": "Point", "coordinates": [ -4.0621, 5.3305 ] } },
{ "type": "Feature", "properties": { "id_equipment": 737, "name_town": "Abidjan", "type": "ecole", "name": null, "id_town": 0 }, "geometry": { "type": "Point", "coordinates": [ -4.0613, 5.3304 ] } },
{ "type": "Feature", "properties": { "id_equipment": 739, "name_town": "Abidjan", "type": "ecole", "name": null, "id_town": 0 }, "geometry": { "type": "Point", "coordinates": [ -4.0557, 5.3326 ] } },
{ "type": "Feature", "properties": { "id_equipment": 740, "name_town": "Abidjan", "type": "ecole", "name": null, "id_town": 0 }, "geometry": { "type": "Point", "coordinates": [ -4.0538, 5.3311 ] } },
{ "type": "Feature", "properties": { "id_equipment": 741, "name_town": "Abidjan", "type": "ecole", "name": null, "id_town": 0 }, "geometry": { "type": "Point", "coordinates": [ -4.0546, 5.3263 ] } },
{ "type": "Feature", "properties": { "id_equipment": 742, "name_town": "Abidjan", "type": "ecole", "name": "Collège Offomou Yapo", "id_town": 0 }, "geometry": { "type": "Point", "coordinates": [ -4.0516, 5.3322 ] } },
{ "type": "Feature", "properties": { "id_equipment": 746, "name_town": "Abidjan", "type": "ecole", "name": null, "id_town": 0 }, "geometry": { "type": "Point", "coordinates": [ -4.064, 5.3201 ] } },
{ "type": "Feature", "properties": { "id_equipment": 747, "name_town": "Abidjan", "type": "ecole", "name": null, "id_town": 0 }, "geometry": { "type": "Point", "coordinates": [ -3.9993, 5.3372 ] } },
{ "type": "Feature", "properties": { "id_equipment": 748, "name_town": "Abidjan", "type": "ecole", "name": null, "id_town": 0 }, "geometry": { "type": "Point", "coordinates": [ -4.0025, 5.3369 ] } },
{ "type": "Feature", "properties": { "id_equipment": 751, "name_town": "Abidjan", "type": "ecole", "name": null, "id_town": 0 }, "geometry": { "type": "Point", "coordinates": [ -4.0035, 5.3435 ] } },
{ "type": "Feature", "properties": { "id_equipment": 753, "name_town": "M'bahiakro", "type": "ecole", "name": "EPP Koko II", "id_town": 0 }, "geometry": { "type": "Point", "coordinates": [ -4.335843454999975, 7.465005050000062 ] } },
{ "type": "Feature", "properties": { "id_equipment": 754, "name_town": "Bondoukou", "type": "ecole", "name": "Collège Moderne&Nana Adou koffai", "id_town": 0 }, "geometry": { "type": "Point", "coordinates": [ -2.785758898999973, 8.050266518000058 ] } },
{ "type": "Feature", "properties": { "id_equipment": 755, "name_town": "Abidjan", "type": "ecole", "name": null, "id_town": 0 }, "geometry": { "type": "Point", "coordinates": [ -4.0593, 5.3243 ] } },
{ "type": "Feature", "properties": { "id_equipment": 756, "name_town": "Abidjan", "type": "ecole", "name": null, "id_town": 0 }, "geometry": { "type": "Point", "coordinates": [ -4.0797, 5.321 ] } },
{ "type": "Feature", "properties": { "id_equipment": 757, "name_town": "Abidjan", "type": "ecole", "name": null, "id_town": 0 }, "geometry": { "type": "Point", "coordinates": [ -4.0727, 5.3082 ] } },
{ "type": "Feature", "properties": { "id_equipment": 760, "name_town": "Abidjan", "type": "ecole", "name": null, "id_town": 0 }, "geometry": { "type": "Point", "coordinates": [ -4.0694, 5.3176 ] } },
{ "type": "Feature", "properties": { "id_equipment": 763, "name_town": "Abidjan", "type": "ecole", "name": null, "id_town": 0 }, "geometry": { "type": "Point", "coordinates": [ -4.0647, 5.325 ] } },
{ "type": "Feature", "properties": { "id_equipment": 764, "name_town": "Abidjan", "type": "ecole", "name": null, "id_town": 0 }, "geometry": { "type": "Point", "coordinates": [ -4.0647, 5.3271 ] } },
{ "type": "Feature", "properties": { "id_equipment": 765, "name_town": "Abidjan", "type": "ecole", "name": "Collège IGES", "id_town": 0 }, "geometry": { "type": "Point", "coordinates": [ -4.0807, 5.3216 ] } },
{ "type": "Feature", "properties": { "id_equipment": 766, "name_town": "Abidjan", "type": "ecole", "name": null, "id_town": 0 }, "geometry": { "type": "Point", "coordinates": [ -4.0701, 5.3403 ] } },
{ "type": "Feature", "properties": { "id_equipment": 767, "name_town": "Abidjan", "type": "ecole", "name": null, "id_town": 0 }, "geometry": { "type": "Point", "coordinates": [ -4.0679, 5.3423 ] } },
{ "type": "Feature", "properties": { "id_equipment": 768, "name_town": "Abidjan", "type": "ecole", "name": null, "id_town": 0 }, "geometry": { "type": "Point", "coordinates": [ -4.0673, 5.3377 ] } },
{ "type": "Feature", "properties": { "id_equipment": 769, "name_town": "Abidjan", "type": "ecole", "name": null, "id_town": 0 }, "geometry": { "type": "Point", "coordinates": [ -4.0666, 5.3358 ] } },
{ "type": "Feature", "properties": { "id_equipment": 771, "name_town": "Abidjan", "type": "ecole", "name": null, "id_town": 0 }, "geometry": { "type": "Point", "coordinates": [ -4.0832, 5.3363 ] } },
{ "type": "Feature", "properties": { "id_equipment": 774, "name_town": "Abidjan", "type": "ecole", "name": null, "id_town": 0 }, "geometry": { "type": "Point", "coordinates": [ -4.0821, 5.3431 ] } },
{ "type": "Feature", "properties": { "id_equipment": 776, "name_town": "Abidjan", "type": "ecole", "name": null, "id_town": 0 }, "geometry": { "type": "Point", "coordinates": [ -4.0805, 5.3428 ] } },
{ "type": "Feature", "properties": { "id_equipment": 778, "name_town": "Abidjan", "type": "ecole", "name": null, "id_town": 0 }, "geometry": { "type": "Point", "coordinates": [ -4.0848, 5.3445 ] } },
{ "type": "Feature", "properties": { "id_equipment": 779, "name_town": "Abidjan", "type": "ecole", "name": null, "id_town": 0 }, "geometry": { "type": "Point", "coordinates": [ -4.0646, 5.3443 ] } },
{ "type": "Feature", "properties": { "id_equipment": 782, "name_town": "Abidjan", "type": "ecole", "name": null, "id_town": 0 }, "geometry": { "type": "Point", "coordinates": [ -4.0618, 5.3185 ] } },
{ "type": "Feature", "properties": { "id_equipment": 783, "name_town": "Abidjan", "type": "ecole", "name": null, "id_town": 0 }, "geometry": { "type": "Point", "coordinates": [ -4.0641, 5.3191 ] } },
{ "type": "Feature", "properties": { "id_equipment": 784, "name_town": "Abidjan", "type": "ecole", "name": null, "id_town": 0 }, "geometry": { "type": "Point", "coordinates": [ -4.0632, 5.3194 ] } },
{ "type": "Feature", "properties": { "id_equipment": 786, "name_town": "Abidjan", "type": "ecole", "name": null, "id_town": 0 }, "geometry": { "type": "Point", "coordinates": [ -4.0635, 5.3262 ] } },
{ "type": "Feature", "properties": { "id_equipment": 787, "name_town": "Abidjan", "type": "ecole", "name": null, "id_town": 0 }, "geometry": { "type": "Point", "coordinates": [ -4.0628, 5.3254 ] } },
{ "type": "Feature", "properties": { "id_equipment": 788, "name_town": "Abidjan", "type": "ecole", "name": null, "id_town": 0 }, "geometry": { "type": "Point", "coordinates": [ -4.0436, 5.3112 ] } },
{ "type": "Feature", "properties": { "id_equipment": 789, "name_town": "Abidjan", "type": "ecole", "name": null, "id_town": 0 }, "geometry": { "type": "Point", "coordinates": [ -4.0436, 5.3228 ] } },
{ "type": "Feature", "properties": { "id_equipment": 790, "name_town": "Abidjan", "type": "ecole", "name": null, "id_town": 0 }, "geometry": { "type": "Point", "coordinates": [ -4.0472, 5.3273 ] } },
{ "type": "Feature", "properties": { "id_equipment": 791, "name_town": "Abidjan", "type": "ecole", "name": null, "id_town": 0 }, "geometry": { "type": "Point", "coordinates": [ -4.0448, 5.3304 ] } },
{ "type": "Feature", "properties": { "id_equipment": 792, "name_town": "Abidjan", "type": "ecole", "name": null, "id_town": 0 }, "geometry": { "type": "Point", "coordinates": [ -4.0507, 5.3293 ] } },
{ "type": "Feature", "properties": { "id_equipment": 794, "name_town": "Abidjan", "type": "ecole", "name": null, "id_town": 0 }, "geometry": { "type": "Point", "coordinates": [ -4.0546, 5.3291 ] } },
{ "type": "Feature", "properties": { "id_equipment": 795, "name_town": "Abidjan", "type": "ecole", "name": null, "id_town": 0 }, "geometry": { "type": "Point", "coordinates": [ -4.0553, 5.3281 ] } },
{ "type": "Feature", "properties": { "id_equipment": 796, "name_town": "Abidjan", "type": "ecole", "name": null, "id_town": 0 }, "geometry": { "type": "Point", "coordinates": [ -4.0635, 5.3397 ] } },
{ "type": "Feature", "properties": { "id_equipment": 797, "name_town": "Abidjan", "type": "ecole", "name": null, "id_town": 0 }, "geometry": { "type": "Point", "coordinates": [ -4.0616, 5.3386 ] } },
{ "type": "Feature", "properties": { "id_equipment": 798, "name_town": "Abidjan", "type": "ecole", "name": null, "id_town": 0 }, "geometry": { "type": "Point", "coordinates": [ -4.0466, 5.3424 ] } },
{ "type": "Feature", "properties": { "id_equipment": 801, "name_town": "Abidjan", "type": "ecole", "name": null, "id_town": 0 }, "geometry": { "type": "Point", "coordinates": [ -4.0431, 5.32 ] } },
{ "type": "Feature", "properties": { "id_equipment": 802, "name_town": "Abidjan", "type": "ecole", "name": null, "id_town": 0 }, "geometry": { "type": "Point", "coordinates": [ -4.0422, 5.3141 ] } },
{ "type": "Feature", "properties": { "id_equipment": 803, "name_town": "Abidjan", "type": "ecole", "name": null, "id_town": 0 }, "geometry": { "type": "Point", "coordinates": [ -4.0429, 5.3133 ] } },
{ "type": "Feature", "properties": { "id_equipment": 805, "name_town": "Abidjan", "type": "ecole", "name": null, "id_town": 0 }, "geometry": { "type": "Point", "coordinates": [ -4.0411, 5.3083 ] } },
{ "type": "Feature", "properties": { "id_equipment": 807, "name_town": "Abidjan", "type": "ecole", "name": null, "id_town": 0 }, "geometry": { "type": "Point", "coordinates": [ -4.0547, 5.3384 ] } },
{ "type": "Feature", "properties": { "id_equipment": 808, "name_town": "Abidjan", "type": "ecole", "name": null, "id_town": 0 }, "geometry": { "type": "Point", "coordinates": [ -4.059, 5.3363 ] } },
{ "type": "Feature", "properties": { "id_equipment": 810, "name_town": "Abidjan", "type": "ecole", "name": null, "id_town": 0 }, "geometry": { "type": "Point", "coordinates": [ -4.0579, 5.3375 ] } },
{ "type": "Feature", "properties": { "id_equipment": 811, "name_town": "Abidjan", "type": "ecole", "name": null, "id_town": 0 }, "geometry": { "type": "Point", "coordinates": [ -4.057, 5.3384 ] } },
{ "type": "Feature", "properties": { "id_equipment": 813, "name_town": "Abidjan", "type": "ecole", "name": null, "id_town": 0 }, "geometry": { "type": "Point", "coordinates": [ -4.0599, 5.3404 ] } },
{ "type": "Feature", "properties": { "id_equipment": 817, "name_town": "Abidjan", "type": "ecole", "name": null, "id_town": 0 }, "geometry": { "type": "Point", "coordinates": [ -4.06, 5.329 ] } },
{ "type": "Feature", "properties": { "id_equipment": 819, "name_town": "Abidjan", "type": "ecole", "name": null, "id_town": 0 }, "geometry": { "type": "Point", "coordinates": [ -4.0417, 5.3061 ] } },
{ "type": "Feature", "properties": { "id_equipment": 823, "name_town": "Abidjan", "type": "ecole", "name": "Collège SEGBE", "id_town": 0 }, "geometry": { "type": "Point", "coordinates": [ -4.0495, 5.3261 ] } },
{ "type": "Feature", "properties": { "id_equipment": 826, "name_town": null, "type": "ecole", "name": "Collège Offomou Yapo", "id_town": 0 }, "geometry": { "type": "Point", "coordinates": [ -4.0522, 5.3333 ] } },
{ "type": "Feature", "properties": { "id_equipment": 827, "name_town": null, "type": "ecole", "name": "Collège SEGBE", "id_town": 0 }, "geometry": { "type": "Point", "coordinates": [ -4.051, 5.3256 ] } },
{ "type": "Feature", "properties": { "id_equipment": 829, "name_town": "Abidjan", "type": "ecole", "name": null, "id_town": 0 }, "geometry": { "type": "Point", "coordinates": [ -4.0191, 5.4331 ] } },
{ "type": "Feature", "properties": { "id_equipment": 832, "name_town": "Abidjan", "type": "ecole", "name": null, "id_town": 0 }, "geometry": { "type": "Point", "coordinates": [ -4.0111, 5.4339 ] } },
{ "type": "Feature", "properties": { "id_equipment": 841, "name_town": "Abidjan", "type": "ecole", "name": null, "id_town": 0 }, "geometry": { "type": "Point", "coordinates": [ -4.0007, 5.423 ] } },
{ "type": "Feature", "properties": { "id_equipment": 842, "name_town": "Abidjan", "type": "ecole", "name": null, "id_town": 0 }, "geometry": { "type": "Point", "coordinates": [ -4.0106, 5.4294 ] } },
{ "type": "Feature", "properties": { "id_equipment": 843, "name_town": "Abidjan", "type": "ecole", "name": null, "id_town": 0 }, "geometry": { "type": "Point", "coordinates": [ -4.0154, 5.4299 ] } },
{ "type": "Feature", "properties": { "id_equipment": 853, "name_town": "Bouafle", "type": "ecole", "name": "Lycée Le Phoenix", "id_town": 0 }, "geometry": { "type": "Point", "coordinates": [ -5.747505668999964, 6.97754208200007 ] } },
{ "type": "Feature", "properties": { "id_equipment": 855, "name_town": "Katiola", "type": "ecole", "name": "Collège ADESKA", "id_town": 0 }, "geometry": { "type": "Point", "coordinates": [ -5.084959617999971, 8.150137420000021 ] } },
{ "type": "Feature", "properties": { "id_equipment": 856, "name_town": "Bouake", "type": "ecole", "name": null, "id_town": 0 }, "geometry": { "type": "Point", "coordinates": [ -5.028932229999954, 7.71750824000003 ] } },
{ "type": "Feature", "properties": { "id_equipment": 858, "name_town": "Abidjan", "type": "ecole", "name": null, "id_town": 0 }, "geometry": { "type": "Point", "coordinates": [ -3.9906, 5.4241 ] } },
{ "type": "Feature", "properties": { "id_equipment": 860, "name_town": "Abidjan", "type": "ecole", "name": null, "id_town": 0 }, "geometry": { "type": "Point", "coordinates": [ -4.0036, 5.4253 ] } },
{ "type": "Feature", "properties": { "id_equipment": 861, "name_town": "Abidjan", "type": "ecole", "name": null, "id_town": 0 }, "geometry": { "type": "Point", "coordinates": [ -4.0037, 5.4235 ] } },
{ "type": "Feature", "properties": { "id_equipment": 863, "name_town": "Abidjan", "type": "ecole", "name": null, "id_town": 0 }, "geometry": { "type": "Point", "coordinates": [ -4.0038, 5.4218 ] } },
{ "type": "Feature", "properties": { "id_equipment": 866, "name_town": "Abidjan", "type": "ecole", "name": null, "id_town": 0 }, "geometry": { "type": "Point", "coordinates": [ -4.013, 5.4259 ] } },
{ "type": "Feature", "properties": { "id_equipment": 867, "name_town": "Abidjan", "type": "ecole", "name": null, "id_town": 0 }, "geometry": { "type": "Point", "coordinates": [ -4.0117, 5.4246 ] } },
{ "type": "Feature", "properties": { "id_equipment": 871, "name_town": "Abidjan", "type": "ecole", "name": null, "id_town": 0 }, "geometry": { "type": "Point", "coordinates": [ -4.0073, 5.4351 ] } },
{ "type": "Feature", "properties": { "id_equipment": 872, "name_town": "Abidjan", "type": "ecole", "name": null, "id_town": 0 }, "geometry": { "type": "Point", "coordinates": [ -4.008, 5.4351 ] } },
{ "type": "Feature", "properties": { "id_equipment": 873, "name_town": "Abidjan", "type": "ecole", "name": null, "id_town": 0 }, "geometry": { "type": "Point", "coordinates": [ -4.0068, 5.4358 ] } },
{ "type": "Feature", "properties": { "id_equipment": 874, "name_town": "Abidjan", "type": "ecole", "name": null, "id_town": 0 }, "geometry": { "type": "Point", "coordinates": [ -4.0055, 5.4413 ] } },
{ "type": "Feature", "properties": { "id_equipment": 876, "name_town": "Abidjan", "type": "ecole", "name": null, "id_town": 0 }, "geometry": { "type": "Point", "coordinates": [ -4.0079, 5.4422 ] } },
{ "type": "Feature", "properties": { "id_equipment": 877, "name_town": "Abidjan", "type": "ecole", "name": null, "id_town": 0 }, "geometry": { "type": "Point", "coordinates": [ -4.0091, 5.4421 ] } },
{ "type": "Feature", "properties": { "id_equipment": 881, "name_town": "Abidjan", "type": "ecole", "name": null, "id_town": 0 }, "geometry": { "type": "Point", "coordinates": [ -4.0095, 5.4389 ] } },
{ "type": "Feature", "properties": { "id_equipment": 882, "name_town": "Abidjan", "type": "ecole", "name": null, "id_town": 0 }, "geometry": { "type": "Point", "coordinates": [ -4.0116, 5.4382 ] } },
{ "type": "Feature", "properties": { "id_equipment": 884, "name_town": "Abidjan", "type": "ecole", "name": null, "id_town": 0 }, "geometry": { "type": "Point", "coordinates": [ -4.0018, 5.4365 ] } },
{ "type": "Feature", "properties": { "id_equipment": 885, "name_town": "Abidjan", "type": "ecole", "name": null, "id_town": 0 }, "geometry": { "type": "Point", "coordinates": [ -4.0138, 5.4414 ] } },
{ "type": "Feature", "properties": { "id_equipment": 887, "name_town": "Abidjan", "type": "ecole", "name": null, "id_town": 0 }, "geometry": { "type": "Point", "coordinates": [ -4.015, 5.4383 ] } },
{ "type": "Feature", "properties": { "id_equipment": 888, "name_town": "Abidjan", "type": "ecole", "name": null, "id_town": 0 }, "geometry": { "type": "Point", "coordinates": [ -4.0196, 5.4395 ] } },
{ "type": "Feature", "properties": { "id_equipment": 889, "name_town": "Abidjan", "type": "ecole", "name": null, "id_town": 0 }, "geometry": { "type": "Point", "coordinates": [ -4.0197, 5.443 ] } },
{ "type": "Feature", "properties": { "id_equipment": 890, "name_town": "Abidjan", "type": "ecole", "name": null, "id_town": 0 }, "geometry": { "type": "Point", "coordinates": [ -4.0188, 5.4433 ] } },
{ "type": "Feature", "properties": { "id_equipment": 891, "name_town": "Abidjan", "type": "ecole", "name": null, "id_town": 0 }, "geometry": { "type": "Point", "coordinates": [ -4.0147, 5.4452 ] } },
{ "type": "Feature", "properties": { "id_equipment": 892, "name_town": "Abidjan", "type": "ecole", "name": null, "id_town": 0 }, "geometry": { "type": "Point", "coordinates": [ -4.0195, 5.4456 ] } },
{ "type": "Feature", "properties": { "id_equipment": 894, "name_town": "Abidjan", "type": "ecole", "name": "Lycée Moderne&d'Abobo", "id_town": 0 }, "geometry": { "type": "Point", "coordinates": [ -4.0129, 5.4289 ] } },
{ "type": "Feature", "properties": { "id_equipment": 897, "name_town": null, "type": "lycée", "name": "Lycée Moderne d??Abobo", "id_town": 0 }, "geometry": { "type": "Point", "coordinates": [ -4.0131, 5.428 ] } },
{ "type": "Feature", "properties": { "id_equipment": 904, "name_town": "Abidjan", "type": "ecole", "name": null, "id_town": 0 }, "geometry": { "type": "Point", "coordinates": [ -3.9877, 5.3963 ] } },
{ "type": "Feature", "properties": { "id_equipment": 906, "name_town": "Abidjan", "type": "ecole", "name": null, "id_town": 0 }, "geometry": { "type": "Point", "coordinates": [ -3.9939, 5.4169 ] } },
{ "type": "Feature", "properties": { "id_equipment": 907, "name_town": "Abidjan", "type": "ecole", "name": null, "id_town": 0 }, "geometry": { "type": "Point", "coordinates": [ -4.0179, 5.4195 ] } },
{ "type": "Feature", "properties": { "id_equipment": 908, "name_town": "Abidjan", "type": "ecole", "name": null, "id_town": 0 }, "geometry": { "type": "Point", "coordinates": [ -4.0069, 5.4067 ] } },
{ "type": "Feature", "properties": { "id_equipment": 909, "name_town": "Abidjan", "type": "ecole", "name": null, "id_town": 0 }, "geometry": { "type": "Point", "coordinates": [ -4.0027, 5.4028 ] } },
{ "type": "Feature", "properties": { "id_equipment": 910, "name_town": "Abidjan", "type": "ecole", "name": null, "id_town": 0 }, "geometry": { "type": "Point", "coordinates": [ -3.9994, 5.4143 ] } },
{ "type": "Feature", "properties": { "id_equipment": 912, "name_town": "Abidjan", "type": "ecole", "name": "Lycée le Mahou", "id_town": 0 }, "geometry": { "type": "Point", "coordinates": [ -3.9969, 5.3988 ] } },
{ "type": "Feature", "properties": { "id_equipment": 917, "name_town": "Abidjan", "type": "ecole", "name": null, "id_town": 0 }, "geometry": { "type": "Point", "coordinates": [ -3.9996, 5.3974 ] } },
{ "type": "Feature", "properties": { "id_equipment": 919, "name_town": "Abidjan", "type": "ecole", "name": null, "id_town": 0 }, "geometry": { "type": "Point", "coordinates": [ -3.9896, 5.4007 ] } },
{ "type": "Feature", "properties": { "id_equipment": 920, "name_town": "Abidjan", "type": "ecole", "name": null, "id_town": 0 }, "geometry": { "type": "Point", "coordinates": [ -3.9868, 5.4019 ] } },
{ "type": "Feature", "properties": { "id_equipment": 922, "name_town": "Abidjan", "type": "ecole", "name": null, "id_town": 0 }, "geometry": { "type": "Point", "coordinates": [ -3.9857, 5.406 ] } },
{ "type": "Feature", "properties": { "id_equipment": 927, "name_town": "Abidjan", "type": "ecole", "name": null, "id_town": 0 }, "geometry": { "type": "Point", "coordinates": [ -4.0033, 5.2719 ] } },
{ "type": "Feature", "properties": { "id_equipment": 928, "name_town": "Abidjan", "type": "ecole", "name": null, "id_town": 0 }, "geometry": { "type": "Point", "coordinates": [ -4.0051, 5.2725 ] } },
{ "type": "Feature", "properties": { "id_equipment": 932, "name_town": "Zuenoula", "type": "ecole", "name": "Lycée Olympe", "id_town": 0 }, "geometry": { "type": "Point", "coordinates": [ -6.041288189999933, 7.415855172000024 ] } },
{ "type": "Feature", "properties": { "id_equipment": 933, "name_town": "Abidjan", "type": "ecole", "name": null, "id_town": 0 }, "geometry": { "type": "Point", "coordinates": [ -4.0055, 5.3983 ] } },
{ "type": "Feature", "properties": { "id_equipment": 936, "name_town": "Abidjan", "type": "ecole", "name": null, "id_town": 0 }, "geometry": { "type": "Point", "coordinates": [ -3.9948, 5.4046 ] } },
{ "type": "Feature", "properties": { "id_equipment": 937, "name_town": "Abidjan", "type": "ecole", "name": null, "id_town": 0 }, "geometry": { "type": "Point", "coordinates": [ -3.9909, 5.4058 ] } },
{ "type": "Feature", "properties": { "id_equipment": 938, "name_town": "Abidjan", "type": "ecole", "name": null, "id_town": 0 }, "geometry": { "type": "Point", "coordinates": [ -3.989, 5.4047 ] } },
{ "type": "Feature", "properties": { "id_equipment": 941, "name_town": "Abidjan", "type": "ecole", "name": null, "id_town": 0 }, "geometry": { "type": "Point", "coordinates": [ -4.0073, 5.4001 ] } },
{ "type": "Feature", "properties": { "id_equipment": 942, "name_town": "Abidjan", "type": "ecole", "name": null, "id_town": 0 }, "geometry": { "type": "Point", "coordinates": [ -3.9997, 5.403 ] } },
{ "type": "Feature", "properties": { "id_equipment": 945, "name_town": "Abidjan", "type": "ecole", "name": null, "id_town": 0 }, "geometry": { "type": "Point", "coordinates": [ -4.003, 5.4053 ] } },
{ "type": "Feature", "properties": { "id_equipment": 946, "name_town": "Abidjan", "type": "ecole", "name": null, "id_town": 0 }, "geometry": { "type": "Point", "coordinates": [ -4.006, 5.408 ] } },
{ "type": "Feature", "properties": { "id_equipment": 948, "name_town": "Abidjan", "type": "ecole", "name": null, "id_town": 0 }, "geometry": { "type": "Point", "coordinates": [ -3.9963, 5.2554 ] } },
{ "type": "Feature", "properties": { "id_equipment": 950, "name_town": "Abidjan", "type": "ecole", "name": null, "id_town": 0 }, "geometry": { "type": "Point", "coordinates": [ -4.0037, 5.2894 ] } },
{ "type": "Feature", "properties": { "id_equipment": 969, "name_town": "Abidjan", "type": "ecole", "name": null, "id_town": 0 }, "geometry": { "type": "Point", "coordinates": [ -4.0066, 5.2905 ] } },
{ "type": "Feature", "properties": { "id_equipment": 971, "name_town": "Abidjan", "type": "ecole", "name": null, "id_town": 0 }, "geometry": { "type": "Point", "coordinates": [ -3.9975, 5.29 ] } },
{ "type": "Feature", "properties": { "id_equipment": 972, "name_town": "Abidjan", "type": "ecole", "name": null, "id_town": 0 }, "geometry": { "type": "Point", "coordinates": [ -4.0044, 5.2972 ] } },
{ "type": "Feature", "properties": { "id_equipment": 978, "name_town": "Abidjan", "type": "ecole", "name": "Collège Moderne de Treichville", "id_town": 0 }, "geometry": { "type": "Point", "coordinates": [ -4.0043, 5.3083 ] } },
{ "type": "Feature", "properties": { "id_equipment": 982, "name_town": null, "type": "ecole", "name": "Collège Moderne&de Treichville", "id_town": 0 }, "geometry": { "type": "Point", "coordinates": [ -4.0047, 5.3091 ] } },
{ "type": "Feature", "properties": { "id_equipment": 983, "name_town": null, "type": "lycée", "name": "Lycée Classique&d?Abidjan", "id_town": 0 }, "geometry": { "type": "Point", "coordinates": [ -4.006, 5.3332 ] } },
{ "type": "Feature", "properties": { "id_equipment": 985, "name_town": null, "type": "ecole", "name": "Collège Mermoz", "id_town": 0 }, "geometry": { "type": "Point", "coordinates": [ -3.9992, 5.3412 ] } },
{ "type": "Feature", "properties": { "id_equipment": 994, "name_town": "Abidjan", "type": "ecole", "name": null, "id_town": 0 }, "geometry": { "type": "Point", "coordinates": [ -4.0113, 5.3198 ] } },
{ "type": "Feature", "properties": { "id_equipment": 1006, "name_town": "Abidjan", "type": "ecole", "name": null, "id_town": 0 }, "geometry": { "type": "Point", "coordinates": [ -4.0069, 5.339 ] } },
{ "type": "Feature", "properties": { "id_equipment": 1008, "name_town": "Abidjan", "type": "ecole", "name": null, "id_town": 0 }, "geometry": { "type": "Point", "coordinates": [ -4.0138, 5.3421 ] } },
{ "type": "Feature", "properties": { "id_equipment": 1009, "name_town": "Abidjan", "type": "ecole", "name": null, "id_town": 0 }, "geometry": { "type": "Point", "coordinates": [ -4.0147, 5.3417 ] } },
{ "type": "Feature", "properties": { "id_equipment": 1015, "name_town": "Abidjan", "type": "ecole", "name": null, "id_town": 0 }, "geometry": { "type": "Point", "coordinates": [ -4.0069, 5.291 ] } },
{ "type": "Feature", "properties": { "id_equipment": 1054, "name_town": "Abidjan", "type": "ecole", "name": null, "id_town": 0 }, "geometry": { "type": "Point", "coordinates": [ -4.0204, 5.4317 ] } },
{ "type": "Feature", "properties": { "id_equipment": 1058, "name_town": "Abidjan", "type": "ecole", "name": null, "id_town": 0 }, "geometry": { "type": "Point", "coordinates": [ -4.0307, 5.4385 ] } },
{ "type": "Feature", "properties": { "id_equipment": 1059, "name_town": "Abidjan", "type": "ecole", "name": null, "id_town": 0 }, "geometry": { "type": "Point", "coordinates": [ -4.0229, 5.4453 ] } },
{ "type": "Feature", "properties": { "id_equipment": 1060, "name_town": "Abidjan", "type": "ecole", "name": null, "id_town": 0 }, "geometry": { "type": "Point", "coordinates": [ -4.0223, 5.443 ] } },
{ "type": "Feature", "properties": { "id_equipment": 1061, "name_town": "Abidjan", "type": "ecole", "name": null, "id_town": 0 }, "geometry": { "type": "Point", "coordinates": [ -4.0305, 5.4207 ] } },
{ "type": "Feature", "properties": { "id_equipment": 1062, "name_town": "Abidjan", "type": "ecole", "name": null, "id_town": 0 }, "geometry": { "type": "Point", "coordinates": [ -4.0335, 5.4179 ] } },
{ "type": "Feature", "properties": { "id_equipment": 1063, "name_town": "Abidjan", "type": "ecole", "name": null, "id_town": 0 }, "geometry": { "type": "Point", "coordinates": [ -4.0392, 5.4303 ] } },
{ "type": "Feature", "properties": { "id_equipment": 1067, "name_town": "Abidjan", "type": "ecole", "name": null, "id_town": 0 }, "geometry": { "type": "Point", "coordinates": [ -4.02, 5.4129 ] } },
{ "type": "Feature", "properties": { "id_equipment": 1069, "name_town": "Abidjan", "type": "ecole", "name": null, "id_town": 0 }, "geometry": { "type": "Point", "coordinates": [ -4.0234, 5.4133 ] } },
{ "type": "Feature", "properties": { "id_equipment": 1072, "name_town": "Abidjan", "type": "ecole", "name": null, "id_town": 0 }, "geometry": { "type": "Point", "coordinates": [ -4.0267, 5.4152 ] } },
{ "type": "Feature", "properties": { "id_equipment": 1074, "name_town": "Abidjan", "type": "ecole", "name": null, "id_town": 0 }, "geometry": { "type": "Point", "coordinates": [ -4.0351, 5.4175 ] } },
{ "type": "Feature", "properties": { "id_equipment": 1076, "name_town": "Abidjan", "type": "ecole", "name": null, "id_town": 0 }, "geometry": { "type": "Point", "coordinates": [ -4.0237, 5.4274 ] } },
{ "type": "Feature", "properties": { "id_equipment": 1078, "name_town": "Katiola", "type": "ecole", "name": "EPP Nandieplekahia", "id_town": 0 }, "geometry": { "type": "Point", "coordinates": [ -5.089390519999939, 8.153270334000071 ] } },
{ "type": "Feature", "properties": { "id_equipment": 1079, "name_town": "Dabou", "type": "ecole", "name": "Collège Catholique ND de la Paix", "id_town": 0 }, "geometry": { "type": "Point", "coordinates": [ -4.382803694999951, 5.314446791000024 ] } },
{ "type": "Feature", "properties": { "id_equipment": 1083, "name_town": "Abidjan", "type": "ecole", "name": null, "id_town": 0 }, "geometry": { "type": "Point", "coordinates": [ -4.0209, 5.4431 ] } },
{ "type": "Feature", "properties": { "id_equipment": 1084, "name_town": "Abidjan", "type": "ecole", "name": null, "id_town": 0 }, "geometry": { "type": "Point", "coordinates": [ -4.0203, 5.4464 ] } },
{ "type": "Feature", "properties": { "id_equipment": 1087, "name_town": "Abidjan", "type": "ecole", "name": null, "id_town": 0 }, "geometry": { "type": "Point", "coordinates": [ -4.0266, 5.4407 ] } },
{ "type": "Feature", "properties": { "id_equipment": 1088, "name_town": "Abidjan", "type": "ecole", "name": null, "id_town": 0 }, "geometry": { "type": "Point", "coordinates": [ -4.0264, 5.4415 ] } },
{ "type": "Feature", "properties": { "id_equipment": 1091, "name_town": "Abidjan", "type": "ecole", "name": null, "id_town": 0 }, "geometry": { "type": "Point", "coordinates": [ -4.024, 5.4395 ] } },
{ "type": "Feature", "properties": { "id_equipment": 1092, "name_town": "Abidjan", "type": "ecole", "name": null, "id_town": 0 }, "geometry": { "type": "Point", "coordinates": [ -4.0284, 5.4383 ] } },
{ "type": "Feature", "properties": { "id_equipment": 1095, "name_town": "Abidjan", "type": "ecole", "name": null, "id_town": 0 }, "geometry": { "type": "Point", "coordinates": [ -4.0324, 5.4413 ] } },
{ "type": "Feature", "properties": { "id_equipment": 1096, "name_town": "Abidjan", "type": "ecole", "name": null, "id_town": 0 }, "geometry": { "type": "Point", "coordinates": [ -4.0363, 5.4386 ] } },
{ "type": "Feature", "properties": { "id_equipment": 1097, "name_town": "Abidjan", "type": "ecole", "name": null, "id_town": 0 }, "geometry": { "type": "Point", "coordinates": [ -4.0451, 5.4381 ] } },
{ "type": "Feature", "properties": { "id_equipment": 1100, "name_town": "Abidjan", "type": "ecole", "name": null, "id_town": 0 }, "geometry": { "type": "Point", "coordinates": [ -4.0519, 5.4489 ] } },
{ "type": "Feature", "properties": { "id_equipment": 1101, "name_town": "Abidjan", "type": "ecole", "name": null, "id_town": 0 }, "geometry": { "type": "Point", "coordinates": [ -4.0551, 5.449 ] } },
{ "type": "Feature", "properties": { "id_equipment": 1103, "name_town": "Abidjan", "type": "ecole", "name": null, "id_town": 0 }, "geometry": { "type": "Point", "coordinates": [ -4.0564, 5.4476 ] } },
{ "type": "Feature", "properties": { "id_equipment": 1105, "name_town": "Abidjan", "type": "ecole", "name": null, "id_town": 0 }, "geometry": { "type": "Point", "coordinates": [ -4.0612, 5.4476 ] } },
{ "type": "Feature", "properties": { "id_equipment": 1113, "name_town": "Abidjan", "type": "ecole", "name": null, "id_town": 0 }, "geometry": { "type": "Point", "coordinates": [ -4.037, 5.3465 ] } },
{ "type": "Feature", "properties": { "id_equipment": 1122, "name_town": "Abidjan", "type": "ecole", "name": null, "id_town": 0 }, "geometry": { "type": "Point", "coordinates": [ -4.0205, 5.364 ] } },
{ "type": "Feature", "properties": { "id_equipment": 1123, "name_town": "Abidjan", "type": "ecole", "name": null, "id_town": 0 }, "geometry": { "type": "Point", "coordinates": [ -4.0233, 5.3464 ] } },
{ "type": "Feature", "properties": { "id_equipment": 1124, "name_town": "Abidjan", "type": "ecole", "name": null, "id_town": 0 }, "geometry": { "type": "Point", "coordinates": [ -4.0299, 5.3542 ] } },
{ "type": "Feature", "properties": { "id_equipment": 1127, "name_town": "Abidjan", "type": "ecole", "name": null, "id_town": 0 }, "geometry": { "type": "Point", "coordinates": [ -4.0582, 5.3462 ] } },
{ "type": "Feature", "properties": { "id_equipment": 1128, "name_town": "Abidjan", "type": "ecole", "name": null, "id_town": 0 }, "geometry": { "type": "Point", "coordinates": [ -4.0572, 5.3466 ] } },
{ "type": "Feature", "properties": { "id_equipment": 1129, "name_town": "Abidjan", "type": "ecole", "name": null, "id_town": 0 }, "geometry": { "type": "Point", "coordinates": [ -4.0609, 5.3515 ] } },
{ "type": "Feature", "properties": { "id_equipment": 1133, "name_town": "Abidjan", "type": "ecole", "name": null, "id_town": 0 }, "geometry": { "type": "Point", "coordinates": [ -4.0519, 5.3473 ] } },
{ "type": "Feature", "properties": { "id_equipment": 1138, "name_town": "Abidjan", "type": "ecole", "name": null, "id_town": 0 }, "geometry": { "type": "Point", "coordinates": [ -4.0336, 5.3482 ] } },
{ "type": "Feature", "properties": { "id_equipment": 1145, "name_town": "Abidjan", "type": "ecole", "name": null, "id_town": 0 }, "geometry": { "type": "Point", "coordinates": [ -4.0227, 5.366 ] } },
{ "type": "Feature", "properties": { "id_equipment": 1149, "name_town": "Abidjan", "type": "ecole", "name": null, "id_town": 0 }, "geometry": { "type": "Point", "coordinates": [ -4.0255, 5.371 ] } },
{ "type": "Feature", "properties": { "id_equipment": 1156, "name_town": "Abidjan", "type": "ecole", "name": null, "id_town": 0 }, "geometry": { "type": "Point", "coordinates": [ -4.017, 5.3638 ] } },
{ "type": "Feature", "properties": { "id_equipment": 1157, "name_town": "Korhogo", "type": "ecole", "name": "Université de Korhogo", "id_town": 0 }, "geometry": { "type": "Point", "coordinates": [ -5.630029788999936, 9.42563484400006 ] } },
{ "type": "Feature", "properties": { "id_equipment": 1158, "name_town": "Abidjan", "type": "ecole", "name": null, "id_town": 0 }, "geometry": { "type": "Point", "coordinates": [ -4.0123, 5.3743 ] } },
{ "type": "Feature", "properties": { "id_equipment": 1160, "name_town": "Abidjan", "type": "ecole", "name": null, "id_town": 0 }, "geometry": { "type": "Point", "coordinates": [ -4.0188, 5.3603 ] } },
{ "type": "Feature", "properties": { "id_equipment": 1161, "name_town": "Abidjan", "type": "ecole", "name": null, "id_town": 0 }, "geometry": { "type": "Point", "coordinates": [ -4.0191, 5.3596 ] } },
{ "type": "Feature", "properties": { "id_equipment": 1163, "name_town": "Abidjan", "type": "ecole", "name": null, "id_town": 0 }, "geometry": { "type": "Point", "coordinates": [ -4.0181, 5.3556 ] } },
{ "type": "Feature", "properties": { "id_equipment": 1164, "name_town": "Abidjan", "type": "ecole", "name": null, "id_town": 0 }, "geometry": { "type": "Point", "coordinates": [ -4.0153, 5.3479 ] } },
{ "type": "Feature", "properties": { "id_equipment": 1165, "name_town": "Abidjan", "type": "ecole", "name": null, "id_town": 0 }, "geometry": { "type": "Point", "coordinates": [ -4.0232, 5.3367 ] } },
{ "type": "Feature", "properties": { "id_equipment": 1166, "name_town": "Abidjan", "type": "ecole", "name": null, "id_town": 0 }, "geometry": { "type": "Point", "coordinates": [ -4.021, 5.3379 ] } },
{ "type": "Feature", "properties": { "id_equipment": 1168, "name_town": "Abidjan", "type": "ecole", "name": null, "id_town": 0 }, "geometry": { "type": "Point", "coordinates": [ -4.0833, 5.3223 ] } },
{ "type": "Feature", "properties": { "id_equipment": 1170, "name_town": "Abidjan", "type": "ecole", "name": null, "id_town": 0 }, "geometry": { "type": "Point", "coordinates": [ -3.991, 5.3031 ] } },
{ "type": "Feature", "properties": { "id_equipment": 1171, "name_town": "Abidjan", "type": "ecole", "name": null, "id_town": 0 }, "geometry": { "type": "Point", "coordinates": [ -4.0655, 5.349 ] } },
{ "type": "Feature", "properties": { "id_equipment": 1173, "name_town": "Abidjan", "type": "ecole", "name": null, "id_town": 0 }, "geometry": { "type": "Point", "coordinates": [ -4.0296, 5.3779 ] } },
{ "type": "Feature", "properties": { "id_equipment": 1175, "name_town": "Abidjan", "type": "ecole", "name": null, "id_town": 0 }, "geometry": { "type": "Point", "coordinates": [ -4.0246, 5.362 ] } },
{ "type": "Feature", "properties": { "id_equipment": 1176, "name_town": "Abidjan", "type": "ecole", "name": null, "id_town": 0 }, "geometry": { "type": "Point", "coordinates": [ -4.0255, 5.3596 ] } },
{ "type": "Feature", "properties": { "id_equipment": 1178, "name_town": "Abidjan", "type": "ecole", "name": null, "id_town": 0 }, "geometry": { "type": "Point", "coordinates": [ -4.025, 5.3607 ] } },
{ "type": "Feature", "properties": { "id_equipment": 1179, "name_town": "Abidjan", "type": "ecole", "name": null, "id_town": 0 }, "geometry": { "type": "Point", "coordinates": [ -4.0247, 5.3477 ] } },
{ "type": "Feature", "properties": { "id_equipment": 1180, "name_town": "Abidjan", "type": "ecole", "name": null, "id_town": 0 }, "geometry": { "type": "Point", "coordinates": [ -4.0203, 5.387 ] } },
{ "type": "Feature", "properties": { "id_equipment": 1181, "name_town": "Abidjan", "type": "ecole", "name": null, "id_town": 0 }, "geometry": { "type": "Point", "coordinates": [ -4.0297, 5.3704 ] } },
{ "type": "Feature", "properties": { "id_equipment": 1183, "name_town": "Abidjan", "type": "ecole", "name": null, "id_town": 0 }, "geometry": { "type": "Point", "coordinates": [ -4.0261, 5.359 ] } },
{ "type": "Feature", "properties": { "id_equipment": 1184, "name_town": "Abidjan", "type": "ecole", "name": null, "id_town": 0 }, "geometry": { "type": "Point", "coordinates": [ -4.0242, 5.3581 ] } },
{ "type": "Feature", "properties": { "id_equipment": 1186, "name_town": "Abidjan", "type": "ecole", "name": null, "id_town": 0 }, "geometry": { "type": "Point", "coordinates": [ -4.027, 5.3518 ] } },
{ "type": "Feature", "properties": { "id_equipment": 1189, "name_town": "Abidjan", "type": "ecole", "name": null, "id_town": 0 }, "geometry": { "type": "Point", "coordinates": [ -4.0247, 5.3506 ] } },
{ "type": "Feature", "properties": { "id_equipment": 1194, "name_town": "Abidjan", "type": "ecole", "name": null, "id_town": 0 }, "geometry": { "type": "Point", "coordinates": [ -4.0207, 5.3518 ] } },
{ "type": "Feature", "properties": { "id_equipment": 1197, "name_town": "Abidjan", "type": "ecole", "name": null, "id_town": 0 }, "geometry": { "type": "Point", "coordinates": [ -4.0478, 5.357 ] } },
{ "type": "Feature", "properties": { "id_equipment": 1198, "name_town": "Abidjan", "type": "ecole", "name": null, "id_town": 0 }, "geometry": { "type": "Point", "coordinates": [ -4.0614, 5.3498 ] } },
{ "type": "Feature", "properties": { "id_equipment": 1199, "name_town": "Abidjan", "type": "ecole", "name": null, "id_town": 0 }, "geometry": { "type": "Point", "coordinates": [ -4.0462, 5.352 ] } },
{ "type": "Feature", "properties": { "id_equipment": 1200, "name_town": "Abidjan", "type": "ecole", "name": null, "id_town": 0 }, "geometry": { "type": "Point", "coordinates": [ -4.1023, 5.3389 ] } },
{ "type": "Feature", "properties": { "id_equipment": 1201, "name_town": "Abidjan", "type": "ecole", "name": null, "id_town": 0 }, "geometry": { "type": "Point", "coordinates": [ -4.1074, 5.3338 ] } },
{ "type": "Feature", "properties": { "id_equipment": 1202, "name_town": null, "type": "ecole", "name": "Collège Lemania", "id_town": 0 }, "geometry": { "type": "Point", "coordinates": [ -3.9842, 5.3609 ] } },
{ "type": "Feature", "properties": { "id_equipment": 1203, "name_town": "Abidjan", "type": "ecole", "name": null, "id_town": 0 }, "geometry": { "type": "Point", "coordinates": [ -4.1107, 5.3328 ] } },
{ "type": "Feature", "properties": { "id_equipment": 1204, "name_town": "Abidjan", "type": "ecole", "name": null, "id_town": 0 }, "geometry": { "type": "Point", "coordinates": [ -4.1027, 5.3291 ] } },
{ "type": "Feature", "properties": { "id_equipment": 1205, "name_town": "Abidjan", "type": "ecole", "name": null, "id_town": 0 }, "geometry": { "type": "Point", "coordinates": [ -4.0995, 5.3293 ] } },
{ "type": "Feature", "properties": { "id_equipment": 1206, "name_town": "Abidjan", "type": "ecole", "name": null, "id_town": 0 }, "geometry": { "type": "Point", "coordinates": [ -4.0979, 5.3274 ] } },
{ "type": "Feature", "properties": { "id_equipment": 1207, "name_town": "Abidjan", "type": "ecole", "name": null, "id_town": 0 }, "geometry": { "type": "Point", "coordinates": [ -4.1032, 5.323 ] } },
{ "type": "Feature", "properties": { "id_equipment": 1208, "name_town": "Abidjan", "type": "ecole", "name": null, "id_town": 0 }, "geometry": { "type": "Point", "coordinates": [ -4.0999, 5.32 ] } },
{ "type": "Feature", "properties": { "id_equipment": 1210, "name_town": "Abidjan", "type": "ecole", "name": null, "id_town": 0 }, "geometry": { "type": "Point", "coordinates": [ -4.0941, 5.3215 ] } },
{ "type": "Feature", "properties": { "id_equipment": 1211, "name_town": "Abidjan", "type": "ecole", "name": null, "id_town": 0 }, "geometry": { "type": "Point", "coordinates": [ -4.0933, 5.3198 ] } },
{ "type": "Feature", "properties": { "id_equipment": 1212, "name_town": "Abidjan", "type": "ecole", "name": null, "id_town": 0 }, "geometry": { "type": "Point", "coordinates": [ -4.0943, 5.3172 ] } },
{ "type": "Feature", "properties": { "id_equipment": 1213, "name_town": "Abidjan", "type": "ecole", "name": null, "id_town": 0 }, "geometry": { "type": "Point", "coordinates": [ -4.0979, 5.3165 ] } },
{ "type": "Feature", "properties": { "id_equipment": 1214, "name_town": "Abidjan", "type": "ecole", "name": null, "id_town": 0 }, "geometry": { "type": "Point", "coordinates": [ -4.1011, 5.3111 ] } },
{ "type": "Feature", "properties": { "id_equipment": 1215, "name_town": "Abidjan", "type": "ecole", "name": null, "id_town": 0 }, "geometry": { "type": "Point", "coordinates": [ -4.0888, 5.3178 ] } },
{ "type": "Feature", "properties": { "id_equipment": 1216, "name_town": "Abidjan", "type": "ecole", "name": null, "id_town": 0 }, "geometry": { "type": "Point", "coordinates": [ -4.0887, 5.3234 ] } },
{ "type": "Feature", "properties": { "id_equipment": 1217, "name_town": "Abidjan", "type": "ecole", "name": "Collège Anador", "id_town": 0 }, "geometry": { "type": "Point", "coordinates": [ -4.1066, 5.3331 ] } },
{ "type": "Feature", "properties": { "id_equipment": 1219, "name_town": "Abidjan", "type": "ecole", "name": null, "id_town": 0 }, "geometry": { "type": "Point", "coordinates": [ -4.0905, 5.3249 ] } },
{ "type": "Feature", "properties": { "id_equipment": 1221, "name_town": "Abidjan", "type": "ecole", "name": null, "id_town": 0 }, "geometry": { "type": "Point", "coordinates": [ -4.0921, 5.3289 ] } },
{ "type": "Feature", "properties": { "id_equipment": 1222, "name_town": "Abidjan", "type": "ecole", "name": null, "id_town": 0 }, "geometry": { "type": "Point", "coordinates": [ -4.0926, 5.3375 ] } },
{ "type": "Feature", "properties": { "id_equipment": 1223, "name_town": "Abidjan", "type": "ecole", "name": null, "id_town": 0 }, "geometry": { "type": "Point", "coordinates": [ -4.0935, 5.3371 ] } },
{ "type": "Feature", "properties": { "id_equipment": 1225, "name_town": "Abidjan", "type": "ecole", "name": null, "id_town": 0 }, "geometry": { "type": "Point", "coordinates": [ -4.0886, 5.3389 ] } },
{ "type": "Feature", "properties": { "id_equipment": 1226, "name_town": "Abidjan", "type": "ecole", "name": null, "id_town": 0 }, "geometry": { "type": "Point", "coordinates": [ -4.0912, 5.3222 ] } },
{ "type": "Feature", "properties": { "id_equipment": 1232, "name_town": "Abidjan", "type": "ecole", "name": null, "id_town": 0 }, "geometry": { "type": "Point", "coordinates": [ -4.1059, 5.3231 ] } },
{ "type": "Feature", "properties": { "id_equipment": 1246, "name_town": "Abidjan", "type": "ecole", "name": null, "id_town": 0 }, "geometry": { "type": "Point", "coordinates": [ -4.1028, 5.336 ] } },
{ "type": "Feature", "properties": { "id_equipment": 1254, "name_town": "Daoukro", "type": "ecole", "name": "Ecole Professionnelle", "id_town": 0 }, "geometry": { "type": "Point", "coordinates": [ -3.974890958999937, 7.069264451000039 ] } },
{ "type": "Feature", "properties": { "id_equipment": 1261, "name_town": "Abidjan", "type": "ecole", "name": null, "id_town": 0 }, "geometry": { "type": "Point", "coordinates": [ -4.0329, 5.3598 ] } },
{ "type": "Feature", "properties": { "id_equipment": 1263, "name_town": "Abidjan", "type": "ecole", "name": null, "id_town": 0 }, "geometry": { "type": "Point", "coordinates": [ -4.034, 5.3572 ] } },
{ "type": "Feature", "properties": { "id_equipment": 1264, "name_town": "Abidjan", "type": "ecole", "name": null, "id_town": 0 }, "geometry": { "type": "Point", "coordinates": [ -4.0373, 5.3593 ] } },
{ "type": "Feature", "properties": { "id_equipment": 1267, "name_town": "Abidjan", "type": "ecole", "name": null, "id_town": 0 }, "geometry": { "type": "Point", "coordinates": [ -4.0406, 5.3534 ] } },
{ "type": "Feature", "properties": { "id_equipment": 1269, "name_town": "Abidjan", "type": "ecole", "name": null, "id_town": 0 }, "geometry": { "type": "Point", "coordinates": [ -4.0379, 5.3535 ] } },
{ "type": "Feature", "properties": { "id_equipment": 1270, "name_town": "Abidjan", "type": "ecole", "name": null, "id_town": 0 }, "geometry": { "type": "Point", "coordinates": [ -4.0357, 5.3532 ] } },
{ "type": "Feature", "properties": { "id_equipment": 1271, "name_town": "Abidjan", "type": "ecole", "name": null, "id_town": 0 }, "geometry": { "type": "Point", "coordinates": [ -4.0369, 5.3525 ] } },
{ "type": "Feature", "properties": { "id_equipment": 1273, "name_town": "Abidjan", "type": "ecole", "name": null, "id_town": 0 }, "geometry": { "type": "Point", "coordinates": [ -4.0341, 5.3461 ] } },
{ "type": "Feature", "properties": { "id_equipment": 1276, "name_town": "Abidjan", "type": "ecole", "name": "Lycée Municipale de Williamsville", "id_town": 0 }, "geometry": { "type": "Point", "coordinates": [ -4.0223, 5.3764 ] } },
{ "type": "Feature", "properties": { "id_equipment": 1279, "name_town": null, "type": "lycée", "name": "Lycée Municipal de Williamsville", "id_town": 0 }, "geometry": { "type": "Point", "coordinates": [ -4.0229, 5.3759 ] } },